~VERSION INFORMATION
VERS.                                                 2.0:   CWLS Log ASCII Standard-VERSION 2.0
WRAP.                                                  NO:   One line per depth step
~Well Information Block
STRT.F                                          7679.0000:   Top Depth
STOP.F                                          8606.0000:   Bottom Depth
STEP.F                                             .50000:   Depth Increment
NULL.                                            -999.250:   Null Value
FLD .                                             FREEMAN:   Field Name
WELL.                                         FREEMAN-004:   NAME
CTRY.                                                 NIG:   COUNTRY
COMP.                                                SPDC:   OPERATOR
SPUD.                                          1998/05/26:   SPUD DATE
UWBI.                                      40000000257501:   UWBI
~PARAMETER INFORMATION (log)
LNAM.                                              PUBLIC:   NAME
LTYP.                                         INTERPRETED:   LOG TYPE
LSRV.                                          EVALUATION:   SERVICE
LVSN.                                                   1:   LOG VERSION
BHIS.                                                  RC:   BRIEF HISTORY
FHIS.                                     RAW-LAS/PUBLISH:   FULL HISTORY
CN  .                                              SNEPCO:   OPERATOR
~Curve Information Block
#MNEM.UNIT                                        API CODE    No Description
#=========                                        ========    == ===========
DEPT.F     FT. MD                            00 001 00 00:     1  DEPTH
DEN.G/CC                                                 :     2  Bulk Density                  =rhoz_01r
GR.API                                                   :     3  Gamma Ray                     =gr_01
NEUT.FRAC                                                :     4  Neutron Porosity              =tnph_01
RES_DEP.OHMM                                             :     5  Resistivity Deep              =aho90_1r
~ASCII
# ...
 7825.0000     2.3474    63.1558      .4130     1.2333
 7825.5000     2.3340    62.9874      .5092     1.2455
 7826.0000     2.2956    69.0916      .4422     1.2469
 7826.5000     2.2596    70.3180      .5027     1.2995
 7827.0000     2.2523    68.5407      .5405     1.3465
 7827.5000     2.2786    72.8003      .5745     1.3965
 7828.0000     2.3222    78.0731      .5465     1.5604
 7828.5000     2.3534    81.5562      .4722     1.7326
 7829.0000     2.3643    70.9841      .4203     1.8866
 7829.5000     2.3707    61.6352      .4835     1.9943
 7830.0000     2.3809    56.2068      .4921     2.0080
 7830.5000     2.3997    54.0266      .5194     1.9888
 7831.0000     2.4190    53.8747      .4463     1.9177
 7831.5000     2.4227    53.3025      .3823     1.6364
 7832.0000     2.4046    55.3051      .3762     1.4896
 7832.5000     2.3755    56.8537      .3807     1.5225
 7833.0000     2.3386    57.9953      .4028     1.4870
 7833.5000     2.2976    60.5590      .3875     1.3614
 7834.0000     2.2703    66.2186      .3943     1.2377
 7834.5000     2.2816    75.2983      .4151     1.1685
 7835.0000     2.3120    82.3845      .4099     1.1415
 7835.5000     2.3202    86.3742      .4258     1.0637
 7836.0000     2.2972    84.5858      .4443     1.0412
 7836.5000     2.2676    79.3726      .4876      .9969
 7837.0000     2.2550    77.4712      .5223      .9780
 7837.5000     2.2524    79.3633      .5085      .9739
 7838.0000     2.2537    81.0930      .5091      .9926
 7838.5000     2.2588    79.0613      .4538     1.0016
 7839.0000     2.2679    78.8552      .4110      .9736
 7839.5000     2.2767    79.2635      .4148      .9600
 7840.0000     2.2739    79.1215      .4608      .9619
 7840.5000     2.2605    79.4873      .5675      .9480
 7841.0000     2.2469    79.2505      .6706      .9300
 7841.5000     2.2413    81.9203      .6361      .9239
 7842.0000     2.2460    79.8999      .5178      .9229
 7842.5000     2.2519    76.0675      .5033      .9254
 7843.0000     2.2548    73.9083      .4688      .9087
 7843.5000     2.2578    71.0344      .4489      .8898
 7844.0000     2.2659    74.4744      .4540      .8791
 7844.5000     2.2648    79.1407      .4831      .8610
 7845.0000     2.2523    80.6055      .5391      .8598
 7845.5000     2.2426    77.6050      .5299      .9100
 7846.0000     2.2492    76.5671      .4904      .9631
 7846.5000     2.2587    77.7937      .4502      .9851
 7847.0000     2.2614    78.6456      .4530      .9827
 7847.5000     2.2572    77.9791      .4618      .9537
 7848.0000     2.2539    76.1501      .4954      .9457
 7848.5000     2.2460    74.9573      .4743      .9366
 7849.0000     2.2411    74.7488      .4646      .8985
 7849.5000     2.2396    76.9031      .4822      .8686
 7850.0000     2.2366    75.2861      .5513      .8646
 7850.5000     2.2301    74.5777      .5153      .8703
 7851.0000     2.2204    75.6107      .5121      .8776
 7851.5000     2.2151    79.9441      .5405      .8863
 7852.0000     2.2189    80.2045      .6122      .8931
 7852.5000     2.2287    77.4195      .6503      .8999
 7853.0000     2.2365    75.6923      .6480      .9068
 7853.5000     2.2354    71.3659      .5812      .9096
 7854.0000     2.2324    74.5518      .5335      .9119
 7854.5000     2.2295    78.5449      .5037      .9429
 7855.0000     2.2310    83.5340      .5076      .9868
 7855.5000     2.2340    84.8014      .5129     1.0146
 7856.0000     2.2462    82.2899      .4812     1.0053
 7856.5000     2.2607    80.2588      .4695      .9871
 7857.0000     2.2700    79.9861      .4568      .9385
 7857.5000     2.2679    81.2865      .5123      .8978
 7858.0000     2.2574    80.6197      .4951      .8571
 7858.5000     2.2448    80.2084      .4831      .8289
 7859.0000     2.2345    78.3056      .4884      .8105
 7859.5000     2.2317    78.4388      .5434      .8343
 7860.0000     2.2369    76.9581      .6333      .8749
 7860.5000     2.2472    75.6996      .6704      .9002
 7861.0000     2.2544    76.1631      .6953      .9149
 7861.5000     2.2526    74.6905      .7290      .9307
 7862.0000     2.2441    77.0815      .6732      .9347
 7862.5000     2.2376    79.1020      .5834      .9358
 7863.0000     2.2379    80.1154      .4963      .9177
 7863.5000     2.2430    81.6339      .4854      .8919
 7864.0000     2.2449    82.9615      .5349      .8848
 7864.5000     2.2477    85.7676      .5368      .9083
 7865.0000     2.2528    87.3114      .4893      .9399
 7865.5000     2.2588    87.8166      .4821      .9636
 7866.0000     2.2604    91.5120      .4544      .9942
 7866.5000     2.2572    94.9292      .4912     1.0346
 7867.0000     2.2567    96.4921      .4873     1.0620
 7867.5000     2.2612    93.5134      .5082     1.0709
 7868.0000     2.2684    88.8886      .4668     1.0843
 7868.5000     2.2759    84.5143      .4592     1.1022
 7869.0000     2.2813    89.0534      .4778     1.0862
 7869.5000     2.2835    96.3293      .4883     1.0738
 7870.0000     2.2829   104.2924      .4827     1.1052
 7870.5000     2.2813   104.8109      .4705     1.1449
 7871.0000     2.2791   102.8404      .4952     1.1405
 7871.5000     2.2770    95.0574      .5064     1.1117
 7872.0000     2.2755    88.4842      .5084     1.1303
 7872.5000     2.2759    85.0534      .4643     1.1857
 7873.0000     2.2779    84.1867      .4353     1.2182
 7873.5000     2.2799    83.6701      .4241     1.2372
 7874.0000     2.2794    80.3933      .4328     1.2921
 7874.5000     2.2765    82.2287      .4411     1.3388
 7875.0000     2.2778    83.7723      .4414     1.2914
 7875.5000     2.2836    87.0361      .4687     1.2592
 7876.0000     2.2883    85.8309      .4835     1.2791
 7876.5000     2.2894    85.0445      .4742     1.2840
 7877.0000     2.2890    84.6733      .4889     1.2521
 7877.5000     2.2889    83.4939      .4940     1.2403
 7878.0000     2.2882    84.0279      .5253     1.2314
 7878.5000     2.2916    82.9715      .5039     1.2155
 7879.0000     2.3025    84.3822      .4754     1.2196
 7879.5000     2.3119    81.8037      .4863     1.2268
 7880.0000     2.3128    79.9128      .4708     1.2174
 7880.5000     2.3079    80.9967      .5005     1.1872
 7881.0000     2.3024    80.1502      .4692     1.1346
 7881.5000     2.2971    81.8578      .4441     1.0991
 7882.0000     2.2839    77.9141      .4056     1.0817
 7882.5000     2.2667    76.6402      .4057     1.0962
 7883.0000     2.2547    73.5236      .4163     1.0945
 7883.5000     2.2521    74.2904      .4575     1.0719
 7884.0000     2.2500    76.4103      .5026     1.0374
 7884.5000     2.2364    81.6225      .4887     1.0130
 7885.0000     2.2109    82.5331      .4681      .9758
 7885.5000     2.1942    80.6448      .4877      .9664
 7886.0000     2.2076    78.5838      .5022      .9844
 7886.5000     2.2403    79.5272      .5209      .9701
 7887.0000     2.2616    80.1297      .5558      .9117
 7887.5000     2.2630    79.9186      .5918      .8862
 7888.0000     2.2579    80.1805      .5402      .8849
 7888.5000     2.2585    80.6730      .4942      .8710
 7889.0000     2.2578    79.9690      .5124      .8612
 7889.5000     2.2502    76.7723      .5417      .8859
 7890.0000     2.2413    75.5123      .5350      .9132
 7890.5000     2.2405    77.4511      .5483      .9001
 7891.0000     2.2493    80.5372      .5430      .8910
 7891.5000     2.2596    81.8710      .5600      .8916
 7892.0000     2.2584    78.9508      .5059      .8755
 7892.5000     2.2500    79.5538      .5190      .8838
 7893.0000     2.2460    78.6839      .5383      .9028
 7893.5000     2.2518    81.5194      .5150      .9294
 7894.0000     2.2642    85.4841      .4990      .9560
 7894.5000     2.2733    89.0199      .4904      .9570
 7895.0000     2.2756    87.5155      .5043      .9219
 7895.5000     2.2690    80.3286      .5768      .8845
 7896.0000     2.2567    75.5880      .6347      .8579
 7896.5000     2.2456    73.5925      .6147      .8610
 7897.0000     2.2462    76.7106      .5040      .8803
 7897.5000     2.2496    79.2514      .4375      .9549
