~VERSION INFORMATION
VERS.                                                 2.0:   CWLS Log ASCII Standard-VERSION 2.0
WRAP.                                                  NO:   One line per depth step
~Well Information Block
STRT.F                                          5633.5000:   Top Depth
STOP.F                                          9740.0000:   Bottom Depth
STEP.F                                             .50000:   Depth Increment
NULL.                                            -999.250:   Null Value
FLD .                                             FREEMAN:   Field Name
WELL.                                     FREEMAN-003-ST1:   NAME
COMP.                                                SPDC:   OPERATOR
UWBI.                                      40000000257402:   UWBI
~PARAMETER INFORMATION (log)
LNAM.                                              PUBLIC:   NAME
LTYP.                                         INTERPRETED:   LOG TYPE
LSRV.                                          EVALUATION:   SERVICE
LVSN.                                                   1:   LOG VERSION
BHIS.                                                  RC:   BRIEF HISTORY
FHIS.                                     RAW-LAS/PUBLISH:   FULL HISTORY
CN  .                                              SNEPCO:   OPERATOR
DATE.                         Wednesday, March 11 2009 07:   RUN DATE
~Curve Information Block
#MNEM.UNIT                                        API CODE    No Description
#=========                                        ========    == ===========
DEPT.F     FT. MD                            00 001 00 00:     1  DEPTH
DEN.G/C3                                                 :     2  Bulk Density                  =rhoz_jr
DT.US/F                                                  :     3  Delta-T Compressional
GR.API                                                   :     4  Gamma Ray                     =ecgr_j
NEU.FRAC                                                 :     5  Neutron Porosity in Limestone =tnph_j
RES_DEP.OHMM                                             :     6  Resistivity Deep              =resd_jr
~ASCII
# ...
 7036.5000     2.1133   150.7000    76.4444      .6305      .8906
 7037.0000     2.1115   153.7000    74.8183      .8190      .9233
 7037.5000     2.1103   153.6000    69.1374      .7234      .9517
 7038.0000     2.1172   153.6000    61.0183      .4810     1.0387
 7038.5000     2.1295   153.9000    53.5693      .3837     1.2370
 7039.0000     2.1373   154.2000    51.8646      .3716     1.2405
 7039.5000     2.1331   154.2000    56.5157      .4024     1.0504
 7040.0000     2.1188   155.1000    66.4255      .4755      .9501
 7040.5000     2.1031   155.1000    75.8320      .5166      .9142
 7041.0000     2.0924   160.6000    74.4916      .8260      .8872
 7041.5000     2.0865   159.6000    74.3934      .8307      .8691
 7042.0000     2.0810   159.8000    73.6706      .8177      .8610
 7042.5000     2.0748   156.4000    73.8372      .6765      .8680
 7043.0000     2.0689   156.2000    73.3127      .6216      .8885
 7043.5000     2.0622   156.2000    72.8982      .6752      .9044
 7044.0000     2.0544   157.5000    75.3700      .6074      .9113
 7044.5000     2.0513   157.5000    76.9082      .6901      .9022
 7045.0000     2.0571   157.6000    76.8679      .6895      .8906
 7045.5000     2.0647   157.6000    79.8749      .8665      .8829
 7046.0000     2.0655   153.4000    81.8144      .7983      .8662
 7046.5000     2.0609   153.4000    81.4841      .8393      .8527
 7047.0000     2.0589   153.5000    77.0915      .6621      .8525
 7047.5000     2.0609   153.5000    77.5888      .5321      .8631
 7048.0000     2.0577   153.3000    78.5440      .5047      .8516
 7048.5000     2.0406   153.6000    77.5805      .5222      .8275
 7049.0000     2.0145   153.3000    76.7662      .6516      .8234
 7049.5000     1.9957   153.6000    75.5689      .6066      .8222
 7050.0000     1.9942   152.7000    75.6181      .6242      .8263
 7050.5000     2.0048   153.7000    76.1576      .7220      .8356
 7051.0000     2.0175   152.8000    75.3140      .6707      .8491
 7051.5000     2.0291   152.8000    76.2967      .6050      .8679
 7052.0000     2.0398   152.6000    75.5556      .5611      .8863
 7052.5000     2.0486   152.3000    79.7395      .6201      .9005
 7053.0000     2.0541   152.3000    78.3506      .8749      .9117
 7053.5000     2.0565   152.4000    74.3968      .7686      .9234
 7054.0000     2.0552   152.2000    67.8247      .7521      .9321
 7054.5000     2.0481   153.6000    69.6043      .6262      .9277
 7055.0000     2.0388   153.3000    73.6731      .6760      .9031
 7055.5000     2.0363   153.3000    79.9695      .7386      .8778
 7056.0000     2.0447   153.1000    78.8240      .8021      .8648
 7056.5000     2.0581   151.5000    81.5340      .9212      .8595
 7057.0000     2.0689   151.7000    82.8720      .6063      .8702
 7057.5000     2.0768   151.0000    84.1054      .4730      .8961
 7058.0000     2.0837   151.7000    82.1333      .4809      .9120
 7058.5000     2.0887   152.6000    73.0086      .5649      .9088
 7059.0000     2.0901   152.6000    67.6775      .6528      .9115
 7059.5000     2.0873   152.0000    59.8459      .7178      .9191
 7060.0000     2.0814   152.0000    60.1138      .5371      .9272
 7060.5000     2.0790   152.8000    64.2384      .6047      .9446
 7061.0000     2.0878   153.4000    74.8880      .4859      .9585
 7061.5000     2.1024   152.7000    80.0293      .5988      .9484
 7062.0000     2.1086   152.8000    80.6852      .8154      .9312
 7062.5000     2.1055   151.7000    76.9058      .7285      .9278
 7063.0000     2.1063   152.2000    72.4984      .5592      .9351
 7063.5000     2.1150   151.5000    72.9244      .4590      .9396
 7064.0000     2.1208   152.1000    73.1568      .5756      .9408
 7064.5000     2.1173   151.7000    74.2370      .6097      .9392
 7065.0000     2.1115   151.7000    74.9302      .6117      .9355
 7065.5000     2.1106   151.2000    73.9280      .5126      .9371
 7066.0000     2.1129   149.8000    72.1227      .5261      .9440
 7066.5000     2.1149   150.0000    69.8507      .5242      .9519
 7067.0000     2.1170   149.0000    75.4428      .6221      .9539
 7067.5000     2.1210   149.9000    75.6861      .5863      .9416
 7068.0000     2.1260   151.0000    73.0671      .5612      .9330
 7068.5000     2.1303   151.6000    67.8805      .5898      .9307
 7069.0000     2.1332   150.0000    70.3378      .7328      .9411
 7069.5000     2.1334   151.0000    71.4140      .8645      .9591
 7070.0000     2.1301   150.6000    75.5438      .6792      .9734
 7070.5000     2.1240   150.6000    76.0572      .6384      .9697
 7071.0000     2.1194   151.0000    80.0853      .5287      .9617
 7071.5000     2.1203   152.3000    80.6529      .5475      .9528
 7072.0000     2.1233   150.8000    80.5609      .5283      .9380
 7072.5000     2.1224   150.8000    73.7584      .6729      .9302
 7073.0000     2.1188   151.0000    74.5099      .6554      .9197
 7073.5000     2.1174   151.1000    76.2622      .9257      .9135
 7074.0000     2.1164   150.9000    80.3140     1.0171      .9217
 7074.5000     2.1110   150.9000    79.8135      .9994      .9319
 7075.0000     2.1053   150.2000    76.5062     1.2016      .9389
 7075.5000     2.1080   146.9000    75.7684     1.1133      .9451
 7076.0000     2.1175   147.4000    75.1572     1.1776      .9467
 7076.5000     2.1237   146.9000    72.8748     1.0739      .9448
 7077.0000     2.1209   148.2000    73.8093      .7432      .9407
 7077.5000     2.1112   149.5000    74.5227      .7435      .9373
 7078.0000     2.0993   151.1000    74.7172      .6640      .9375
 7078.5000     2.0894   151.9000    73.8652      .6827      .9364
 7079.0000     2.0855   151.9000    75.8572      .6681      .9334
 7079.5000     2.0931   151.0000    76.3595      .6248      .9320
 7080.0000     2.1101   151.9000    70.9722      .7303      .9354
 7080.5000     2.1215   151.9000    71.1373      .5916      .9425
 7081.0000     2.1158   152.0000    75.9324      .6357      .9550
 7081.5000     2.1015   152.3000    81.1083      .7748      .9539
 7082.0000     2.0944   152.9000    82.1705      .9131      .9320
 7082.5000     2.0966   153.4000    80.6066      .6364      .9191
 7083.0000     2.1017   153.1000    79.3114      .4925      .9227
 7083.5000     2.1076   153.3000    77.6376      .4292      .9320
 7084.0000     2.1135   153.7000    79.3997      .5078      .9417
 7084.5000     2.1168   152.3000    84.4756      .4952      .9514
 7085.0000     2.1164   151.8000    88.7028      .6636      .9573
 7085.5000     2.1125   152.3000    83.3615      .5903      .9614
 7086.0000     2.1040   152.1000    80.6518      .5877      .9654
 7086.5000     2.0934   153.3000    83.9380      .4812      .9671
 7087.0000     2.0872   152.0000    85.2317      .5389      .9652
 7087.5000     2.0880   150.9000    83.3562      .5060      .9726
 7088.0000     2.0907   150.7000    77.4803      .5075      .9824
 7088.5000     2.0888   152.3000    78.4447      .4628      .9848
 7089.0000     2.0805   151.0000    76.5640      .5007      .9766
 7089.5000     2.0708   151.3000    76.6988      .6379      .9680
 7090.0000     2.0653   150.6000    76.0182      .8129      .9572
 7090.5000     2.0649   150.0000    77.7639      .7018      .9486
 7091.0000     2.0675   149.4000    78.2710      .5393      .9494
 7091.5000     2.0712   149.4000    79.0363      .5710      .9591
 7092.0000     2.0764   150.4000    80.4963      .7301      .9628
 7092.5000     2.0842   150.7000    80.7909      .6787      .9525
 7093.0000     2.0922   151.4000    74.2272      .5775      .9379
 7093.5000     2.0962   152.6000    72.5000      .5961      .9205
 7094.0000     2.0961   151.1000    70.6416      .5922      .9069
 7094.5000     2.0973   151.8000    72.9924      .6378      .9024
 7095.0000     2.1035   150.1000    79.5114      .6734      .9029
 7095.5000     2.1099   151.3000    85.0820      .7282      .9075
 7096.0000     2.1106   152.4000    93.6980      .6766      .9125
 7096.5000     2.1081   152.4000    87.4139      .6475      .9171
 7097.0000     2.1082   152.0000    83.7757      .6502      .9165
