~VERSION INFORMATION
VERS.                                                 2.0:   CWLS Log ASCII Standard-VERSION 2.0
WRAP.                                                  NO:   One line per depth step
~Well Information Block
STRT.F                                          7564.5000:   Top Depth
STOP.F                                         11357.0000:   Bottom Depth
STEP.F                                             .50000:   Depth Increment
NULL.                                            -999.250:   Null Value
FLD .                                             FREEMAN:   Field Name
WELL.                                     FREEMAN-004-ST1:   NAME
CTRY.                                                 NIG:   COUNTRY
COMP.                                                SPDC:   OPERATOR
SPUD.                                          1998/05/26:   SPUD DATE
UWBI.                                      40000000257502:   UWBI
~PARAMETER INFORMATION (log)
LNAM.                                                                   PUBLIC:   NAME
LTYP.                                                              INTERPRETED:   LOG TYPE
LSRV.                                                               EVALUATION:   SERVICE
LVSN.                                                                        1:   LOG VERSION
BHIS.                                                                       RC:   BRIEF HISTORY
FHIS.                                                          RAW-LAS/PUBLISH:   FULL HISTORY
CN  .        SHELL NIGERIA EXPLORATION AND PRODUCTION COMPANY LIMITED (SNEPCO):   OPERATOR
~Curve Information Block
#MNEM.UNIT                                                             API CODE    No Description
#=========                                                             ========    == ===========
DEPT.F     FT. MD                            00 001 00 00:     1  DEPTH
DEN.G/CC                                                 :     2  Bulk Density                  =rhoz_e
DT.US/F                                                  :     3  Sonic (Compressional)         =dtlf_e
GR.API                                                   :     4  Gamma Ray                     =ecgr_02
NEUT.FRAC                                                :     5  Neutron Porosity              =nphi_02
RES_DEP.OHMM                                             :     6  Resistivity Deep              =aho90_r
~ASCII
# ...
 9821.5000     2.3935   104.4987   117.0724      .3602     1.3375
 9822.0000     2.4012   103.3887   120.1136      .3426     1.3585
 9822.5000     2.4033   102.4609   121.0498      .3151     1.4233
 9823.0000     2.4015   101.9661   119.8368      .3239     1.4652
 9823.5000     2.3988   101.4713   119.0395      .3544     1.4845
 9824.0000     2.3972   101.8848   118.7337      .3406     1.4925
 9824.5000     2.3949   103.9681   119.9217      .3570     1.4708
 9825.0000     2.3891   106.8848   116.3275      .3618     1.4767
 9825.5000     2.3795   110.8529   113.7464      .4061     1.4041
 9826.0000     2.3699   110.9147   116.3256      .4173     1.3465
 9826.5000     2.3684   111.7969   124.9133      .4250     1.3044
 9827.0000     2.3800   107.8906   131.5068      .4011     1.3150
 9827.5000     2.3972   105.7389   125.2295      .3602     1.3788
 9828.0000     2.4110   103.2715   116.9688      .3253     1.4131
 9828.5000     2.4150   101.7350   110.7426      .3141     1.3924
 9829.0000     2.4160   101.1849   112.1899      .3289     1.4145
 9829.5000     2.4151   100.5436   106.6083      .3163     1.4335
 9830.0000     2.4119    98.8412   102.7452      .3384     1.3991
 9830.5000     2.4072    97.6530   103.5493      .3380     1.4058
 9831.0000     2.4058    97.8809   109.2667      .3551     1.4549
 9831.5000     2.4062    98.1804   108.1613      .3452     1.4433
 9832.0000     2.4055    99.3782   106.5402      .3581     1.4392
 9832.5000     2.4046    99.5703   105.1917      .3711     1.4731
 9833.0000     2.4070    98.9062   110.5430      .3593     1.4654
 9833.5000     2.4114    97.0670   108.5844      .3217     1.4263
 9834.0000     2.4137    97.9362   108.2681      .3201     1.4117
 9834.5000     2.4123    97.2591   107.3798      .3221     1.4568
 9835.0000     2.4094    99.8080   106.8247      .3499     1.5037
 9835.5000     2.4057   100.7129   112.0508      .3372     1.5362
 9836.0000     2.3997   102.2754   112.2813      .3414     1.5642
 9836.5000     2.3897   103.6035   120.4595      .3394     1.5568
 9837.0000     2.3812   106.2240   121.7314      .3356     1.5241
 9837.5000     2.3752   106.9987   124.9921      .3566     1.5147
 9838.0000     2.3690   107.4414   122.7328      .3514     1.5149
 9838.5000     2.3601   110.5208   121.6695      .3766     1.5114
 9839.0000     2.3525   108.2096   119.2218      .3697     1.4667
 9839.5000     2.3478   108.3691   115.5678      .3799     1.4119
 9840.0000     2.3495   107.9622   111.6203      .4108     1.3624
 9840.5000     2.3579   106.5983   115.0738      .4237     1.3263
 9841.0000     2.3688   104.9544   116.2668      .4528     1.3667
 9841.5000     2.3705   102.3307   120.0296      .4028     1.4592
 9842.0000     2.3659   103.2226   115.4639      .3950     1.3782
 9842.5000     2.3656   106.7220   118.1967      .3648     1.2237
 9843.0000     2.3688   110.5729   112.6937      .3676     1.1283
 9843.5000     2.3683   112.6172   112.0172      .3836     1.0960
 9844.0000     2.3577   115.8887   107.0594      .4045     1.0301
 9844.5000     2.3481   116.3932   107.1639      .4306      .9594
 9845.0000     2.3370   116.9336   101.3482      .4167      .8997
 9845.5000     2.3285   117.6237   100.3438      .4029      .8717
 9846.0000     2.3176   117.7213   101.8297      .4169      .8833
 9846.5000     2.3206   116.1621   104.4508      .4546      .8847
 9847.0000     2.3407   117.0605   101.2661      .4526      .8980
 9847.5000     2.3547   117.5846   102.2166      .4363      .9131
 9848.0000     2.3509   120.8268   105.8287      .3938      .9143
 9848.5000     2.3436   120.6380   107.6962      .4023      .8934
 9849.0000     2.3475   120.3353   105.3531      .3786      .8770
 9849.5000     2.3491   119.9447   103.2815      .3952      .8603
 9850.0000     2.3380   118.6003   102.1706      .4497      .8500
 9850.5000     2.3320   116.1784    98.3019      .4757      .8496
 9851.0000     2.3468   115.2767    94.6987      .4681      .8925
 9851.5000     2.3613   113.8249    96.0969      .4154      .9356
 9852.0000     2.3585   114.1699   102.1634      .4207      .8976
 9852.5000     2.3437   114.3718   106.9544      .4342      .8793
 9853.0000     2.3289   115.1335   108.6349      .4278      .8729
 9853.5000     2.3230   116.3867   111.2578      .4436      .8562
 9854.0000     2.3164   115.9635   112.1142      .4415      .8534
 9854.5000     2.3101   116.6862   109.2954      .4936      .8641
 9855.0000     2.3136   115.8268   105.6276      .4657      .8902
 9855.5000     2.3305   113.9323   100.9612      .4505      .9092
 9856.0000     2.3467   113.8216   109.6432      .4225      .9333
 9856.5000     2.3540   111.8001   113.6984      .4238      .9772
 9857.0000     2.3495   110.9831   121.6791      .4726     1.0092
 9857.5000     2.3445   112.2786   116.0478      .4666     1.0468
 9858.0000     2.3402   113.5059   114.7911      .5279     1.0678
 9858.5000     2.3400   112.8223   108.3339      .5178     1.0520
 9859.0000     2.3459   113.9648   109.4864      .5266     1.0233
 9859.5000     2.3481   113.8379   108.3735      .4963      .9724
 9860.0000     2.3447   113.9746   114.8432      .4784      .9713
 9860.5000     2.3376   114.0430   110.2983      .4763     1.0252
 9861.0000     2.3311   113.9388   113.1081      .4582     1.0323
 9861.5000     2.3275   114.0723   102.2803      .4460      .9842
 9862.0000     2.3236   111.9531   105.5567      .4627      .9676
 9862.5000     2.3205   111.8652    98.2081      .4658     1.0050
 9863.0000     2.3265   111.4030   104.7443      .4924     1.1147
 9863.5000     2.3512   110.2148   105.0408      .4648     1.0913
 9864.0000     2.3773   110.5045   106.2854      .4219     1.1272
 9864.5000     2.3929   109.7949   108.9717      .3912     1.1960
 9865.0000     2.3935   111.3021   111.6722      .3929     1.1421
 9865.5000     2.3889   110.1042   115.9395      .4084     1.0577
 9866.0000     2.3754   111.7545   113.1462      .4063     1.0563
 9866.5000     2.3537   113.2227   104.9496      .4060     1.1086
 9867.0000     2.3428   113.2943   109.5809      .4091     1.1403
 9867.5000     2.3482   114.2220   113.4973      .3959     1.0265
 9868.0000     2.3497   115.3809   120.7409      .3921      .9130
 9868.5000     2.3490   113.7435   109.5596      .4060      .9415
 9869.0000     2.3562   113.8770   104.6435      .4472      .9993
 9869.5000     2.3810   112.9948   103.2617      .4406     1.0583
 9870.0000     2.4027   113.5970   109.7786      .4606     1.0824
 9870.5000     2.4089   113.0306   109.0314      .4463     1.1252
 9871.0000     2.4081   112.5423   111.6318      .4474     1.0764
 9871.5000     2.4064   113.9030   115.4604      .4236     1.0545
 9872.0000     2.3934   115.5534   123.4797      .4245     1.0392
 9872.5000     2.3658   115.9310   124.4614      .4501     1.0040
 9873.0000     2.3291   118.3268   121.6101      .4544      .9496
 9873.5000     2.2970   120.5501   121.2852      .4286      .9157
 9874.0000     2.2844   119.9707   123.2525      .4284      .8996
 9874.5000     2.2954   118.7207   120.6192      .4153      .8990
 9875.0000     2.3207   118.5612   113.5598      .4205      .9109
 9875.5000     2.3392   117.5358   113.0666      .4377      .9155
 9876.0000     2.3345   116.5072   113.7875      .4490      .9111
 9876.5000     2.3248   116.1491   118.8670      .4675      .9627
 9877.0000     2.3291   116.1328   113.5810      .4511     1.0378
 9877.5000     2.3449   115.2214   110.2565      .4503     1.0107
 9878.0000     2.3538   114.4466   107.6322      .4495      .9339
 9878.5000     2.3425   117.1061   111.2444      .4366      .9303
 9879.0000     2.3261   116.7155   118.1607      .4381      .9398
 9879.5000     2.3163   116.5267   119.1692      .4230      .9190
 9880.0000     2.3157   113.6849   117.9100      .4412      .9770
 9880.5000     2.3332   114.9544   113.0931      .4334      .9676
 9881.0000     2.3671   114.2741   110.4312      .4491      .9344
 9881.5000     2.3958   111.8327   110.5709      .4349      .9376
 9882.0000     2.3974   112.0410   111.1312      .4316      .9628
