~VERSION INFORMATION
VERS.                                                 2.0:   CWLS Log ASCII Standard-VERSION 2.0
WRAP.                                                  NO:   One line per depth step
~Well Information Block
STRT.F                                          5633.5000:   Top Depth
STOP.F                                          9740.0000:   Bottom Depth
STEP.F                                             .50000:   Depth Increment
NULL.                                            -999.250:   Null Value
FLD .                                             FREEMAN:   Field Name
WELL.                                     FREEMAN-003-ST1:   NAME
COMP.                                                SPDC:   OPERATOR
UWBI.                                      40000000257402:   UWBI
~PARAMETER INFORMATION (log)
LNAM.                                              PUBLIC:   NAME
LTYP.                                         INTERPRETED:   LOG TYPE
LSRV.                                          EVALUATION:   SERVICE
LVSN.                                                   1:   LOG VERSION
BHIS.                                                  RC:   BRIEF HISTORY
FHIS.                                     RAW-LAS/PUBLISH:   FULL HISTORY
CN  .                                              SNEPCO:   OPERATOR
DATE.                         Wednesday, March 11 2009 07:   RUN DATE
~Curve Information Block
#MNEM.UNIT                                        API CODE    No Description
#=========                                        ========    == ===========
DEPT.F     FT. MD                            00 001 00 00:     1  DEPTH
DEN.G/C3                                                 :     2  Bulk Density                  =rhoz_jr
DT.US/F                                                  :     3  Delta-T Compressional
GR.API                                                   :     4  Gamma Ray                     =ecgr_j
NEU.FRAC                                                 :     5  Neutron Porosity in Limestone =tnph_j
RES_DEP.OHMM                                             :     6  Resistivity Deep              =resd_jr
~ASCII
# ...
 8073.5000     2.1295   128.9000    90.8474      .4107     1.2046
 8074.0000     2.1571   128.7000    93.1948      .4550     1.2260
 8074.5000     2.1672   129.7000    93.4864      .5239     1.2305
 8075.0000     2.1675   129.1000    88.1730      .5694     1.2015
 8075.5000     2.1683   129.0000    80.2466      .5251     1.1955
 8076.0000     2.1675   129.8000    78.1047      .4698     1.2046
 8076.5000     2.1601   129.1000    87.0693      .4779     1.2040
 8077.0000     2.1509   129.1000    89.6020      .4826     1.1811
 8077.5000     2.1447   131.5000    90.4937      .4566     1.1655
 8078.0000     2.1402   130.1000    89.4545      .4222     1.1858
 8078.5000     2.1373   129.0000    88.3202      .4035     1.2086
 8079.0000     2.1394   129.0000    82.6705      .4124     1.2102
 8079.5000     2.1449   130.1000    81.4350      .4471     1.2035
 8080.0000     2.1479   129.7000    92.3323      .4938     1.1939
 8080.5000     2.1476   127.5000   102.4290      .5406     1.1858
 8081.0000     2.1470   128.8000   107.0140      .5620     1.1926
 8081.5000     2.1528   131.4000    98.9994      .7119     1.2024
 8082.0000     2.1652   132.0000    93.5201      .6496     1.2167
 8082.5000     2.1690   131.0000    85.0656      .4914     1.2034
 8083.0000     2.1551   131.6000    83.8066      .4077     1.1868
 8083.5000     2.1331   130.8000    85.5526      .4103     1.1829
 8084.0000     2.1230   131.6000    89.9382      .4003     1.1714
 8084.5000     2.1270   131.1000    90.3476      .4265     1.1484
 8085.0000     2.1316   128.7000    89.6987      .4403     1.1478
 8085.5000     2.1338   128.1000    93.3245      .4894     1.1502
 8086.0000     2.1408   126.8000    98.4813      .4590     1.1630
 8086.5000     2.1552   127.4000   101.0770      .5080     1.1965
 8087.0000     2.1673   126.5000    96.8575      .4874     1.2123
 8087.5000     2.1707   129.7000    91.0796      .4985     1.2117
 8088.0000     2.1722   129.0000    89.5998      .4055     1.2105
 8088.5000     2.1818   127.4000    90.5276      .4025     1.2249
 8089.0000     2.1944   127.4000    94.6822      .4353     1.2415
 8089.5000     2.1966   127.3000   102.4080      .4814     1.2514
 8090.0000     2.1873   128.3000   103.4060      .4800     1.2385
 8090.5000     2.1774   130.8000    99.4930      .4604     1.2088
 8091.0000     2.1708   130.4000    96.8813      .4366     1.2076
 8091.5000     2.1622   133.3000    97.0878      .4458     1.2235
 8092.0000     2.1517   132.2000    93.4183      .4733     1.2270
 8092.5000     2.1480   131.2000    92.7765      .4900     1.2138
 8093.0000     2.1520   131.2000    92.9579      .4473     1.2012
 8093.5000     2.1544   132.4000    97.1283      .4123     1.2044
 8094.0000     2.1487   133.2000    90.7129      .4100     1.2093
 8094.5000     2.1386   133.2000    90.5753      .4033     1.2049
 8095.0000     2.1311   130.0000    97.9770      .4127     1.1971
 8095.5000     2.1313   130.8000   101.4060      .4042     1.1928
 8096.0000     2.1383   131.7000    99.5111      .3677     1.1964
 8096.5000     2.1438   131.7000    95.1698      .3481     1.1916
 8097.0000     2.1435   114.3000    97.5508      .3861     1.1625
 8097.5000     2.1432   135.9000    97.5453      .3925     1.1809
 8098.0000     2.1503   134.9000    92.5000      .3889     1.2281
 8098.5000     2.1604   133.6000    83.9293      .3929     1.2362
 8099.0000     2.1680   134.9000    86.0958      .3980     1.2111
 8099.5000     2.1719   134.4000    86.2377      .4360     1.1968
 8100.0000     2.1678   135.6000    84.1628      .4204     1.1893
 8100.5000     2.1491   135.6000    81.9593      .4189     1.1732
 8101.0000     2.1201   134.9000    84.4360      .4109     1.1616
 8101.5000     2.0995   135.4000    89.8116      .4208     1.1662
 8102.0000     2.1041   136.3000    92.5123      .4244     1.1680
 8102.5000     2.1339   136.3000    89.3259      .4237     1.1676
 8103.0000     2.1681   128.8000    84.1158      .4025     1.1694
 8103.5000     2.1759   134.0000    74.2679      .4122     1.1680
 8104.0000     2.1473   131.1000    71.8986      .4712     1.1547
 8104.5000     2.1119   131.6000    72.7003      .4681     1.1418
 8105.0000     2.1075   134.7000    79.5760      .4485     1.1492
 8105.5000     2.1335   135.6000    89.4411      .3743     1.1723
 8106.0000     2.1595   131.8000    93.7823      .3489     1.1740
 8106.5000     2.1658   131.8000    91.9368      .3411     1.1688
 8107.0000     2.1548   141.7000    85.5796      .3708     1.1760
 8107.5000     2.1356   143.5000    80.6145      .4105     1.1767
 8108.0000     2.1159   161.0000    80.8542      .3858     1.1782
 8108.5000     2.1029   159.1000    84.7784      .3806     1.1724
 8109.0000     2.1009   159.1000    82.0816      .3855     1.1503
 8109.5000     2.1139   157.9000    80.1821      .3951     1.1574
 8110.0000     2.1411   157.9000    77.3273      .4062     1.2406
 8110.5000     2.1696   128.2000    83.2116      .4252     1.3147
 8111.0000     2.1721   128.2000    76.3852      .4285     1.4563
 8111.5000     2.1044   128.2000    64.8441      .4874     2.0046
 8112.0000     1.9677   128.2000    56.3429      .5650     2.6063
 8112.5000     1.8565   127.1000    62.5449      .6485     2.0838
 8113.0000     1.8989   127.1000    70.1943      .6657     1.5260
 8113.5000     2.0595   124.8000    86.3050      .5252     1.2861
 8114.0000     2.1815   124.8000    93.0540      .4868     1.2658
 8114.5000     2.1905   126.3000    96.9636      .4154     1.2800
 8115.0000     2.1500   131.9000    97.7247      .4058     1.2620
 8115.5000     2.1432   133.5000    92.6738      .3880     1.2069
 8116.0000     2.1415   131.7000    82.3253      .4563     1.1877
 8116.5000     2.1175   122.5000    67.7947      .5281     1.2167
 8117.0000     2.0806   117.8000    56.1362      .5508     1.2367
 8117.5000     2.0489   120.5000    52.5474      .4931     1.3199
 8118.0000     2.0429   124.0000    47.0370      .4115     1.5492
 8118.5000     2.0885   124.0000    46.6216      .3708     1.8422
 8119.0000     2.1770   121.8000    42.1597      .3351     1.9845
 8119.5000     2.2523   121.8000    39.9314      .3607     1.9375
 8120.0000     2.2827   103.7000    41.3194      .3564     1.8699
 8120.5000     2.2734   103.7000    42.2440      .3878     1.8347
 8121.0000     2.2260   112.4000    42.7491      .4140     1.7590
 8121.5000     2.1509   122.0000    51.5483      .4943     1.6008
 8122.0000     2.1116   116.7000    72.2463      .5774     1.4505
 8122.5000     2.1610   116.7000    78.0133      .5087     1.3266
 8123.0000     2.2365   111.7000    72.3157      .4414     1.3586
 8123.5000     2.2554   117.0000    61.1043      .3943     1.6162
 8124.0000     2.2204   116.3000    58.7390      .4657     1.6898
 8124.5000     2.1850   120.7000    64.0167      .4855     1.4274
 8125.0000     2.1482   121.7000    61.8324      .5531     1.2883
 8125.5000     2.0940   123.6000    59.1699      .5148     1.2050
 8126.0000     2.0428   127.3000    54.9141      .5264     1.1487
 8126.5000     2.0294   125.8000    50.4551      .4569     1.1627
 8127.0000     2.0484   121.1000    53.0604      .4290     1.1963
 8127.5000     2.0672   122.1000    51.6251      .4670     1.1812
 8128.0000     2.0801   119.7000    52.3158      .4320     1.2886
 8128.5000     2.1115   119.6000    50.0056      .4004     1.5313
 8129.0000     2.1714   117.5000    47.0792      .3387     1.7542
 8129.5000     2.2239   116.2000    45.3306      .3215     1.8508
 8130.0000     2.2272   121.3000    43.0784      .3363     1.6856
 8130.5000     2.1775   121.3000    46.2487      .3511     1.4120
 8131.0000     2.1179   130.7000    46.8638      .3950     1.3394
 8131.5000     2.0961   124.0000    42.7513      .4528     1.4898
 8132.0000     2.1236   116.6000    36.1735      .3629     1.6863
 8132.5000     2.1776   116.6000    30.8199      .3688     1.7632
 8133.0000     2.2320   113.3000    29.2989      .2839     1.8643
 8133.5000     2.2715   117.5000    30.0552      .3133     1.9376
 8134.0000     2.2803   125.4000    30.2139      .3016     1.9210
