~VERSION INFORMATION
VERS.                                                 2.0:   CWLS Log ASCII Standard-VERSION 2.0
WRAP.                                                  NO:   One line per depth step
~Well Information Block
STRT.F                                          7679.0000:   Top Depth
STOP.F                                          8606.0000:   Bottom Depth
STEP.F                                             .50000:   Depth Increment
NULL.                                            -999.250:   Null Value
FLD .                                             FREEMAN:   Field Name
WELL.                                         FREEMAN-004:   NAME
CTRY.                                                 NIG:   COUNTRY
COMP.                                                SPDC:   OPERATOR
SPUD.                                          1998/05/26:   SPUD DATE
UWBI.                                      40000000257501:   UWBI
~PARAMETER INFORMATION (log)
LNAM.                                              PUBLIC:   NAME
LTYP.                                         INTERPRETED:   LOG TYPE
LSRV.                                          EVALUATION:   SERVICE
LVSN.                                                   1:   LOG VERSION
BHIS.                                                  RC:   BRIEF HISTORY
FHIS.                                     RAW-LAS/PUBLISH:   FULL HISTORY
CN  .                                              SNEPCO:   OPERATOR
~Curve Information Block
#MNEM.UNIT                                        API CODE    No Description
#=========                                        ========    == ===========
DEPT.F     FT. MD                            00 001 00 00:     1  DEPTH
DEN.G/CC                                                 :     2  Bulk Density                  =rhoz_01r
GR.API                                                   :     3  Gamma Ray                     =gr_01
NEUT.FRAC                                                :     4  Neutron Porosity              =tnph_01
RES_DEP.OHMM                                             :     5  Resistivity Deep              =aho90_1r
~ASCII
# ...
 8044.0000     2.2570    85.8146      .5132      .7996
 8044.5000     2.2492    86.2356      .4906      .7785
 8045.0000     2.2437    86.5602      .5231      .7943
 8045.5000     2.2417    87.2488      .5195      .8043
 8046.0000     2.2445    86.6737      .4812      .8217
 8046.5000     2.2514    84.2057      .4747      .8223
 8047.0000     2.2581    78.6497      .4882      .7974
 8047.5000     2.2600    78.6909      .5231      .7761
 8048.0000     2.2569    81.1292      .5109      .7752
 8048.5000     2.2524    81.8413      .5142      .7825
 8049.0000     2.2515    80.0553      .5160      .7927
 8049.5000     2.2567    80.6423      .4980      .8146
 8050.0000     2.2668    79.5523      .4814      .8350
 8050.5000     2.2687    80.9869      .5242      .8505
 8051.0000     2.2625    77.4011      .5677      .8504
 8051.5000     2.2734    75.2740      .5422      .8465
 8052.0000     2.3230    71.2387      .4868      .8391
 8052.5000     2.3894    67.5125      .4644      .8209
 8053.0000     2.4289    66.5793      .5101      .8088
 8053.5000     2.4148    68.5963      .5635      .7986
 8054.0000     2.3693    72.3779      .5614      .7897
 8054.5000     2.3181    73.8765      .5290      .7846
 8055.0000     2.2815    73.2249      .5194      .7743
 8055.5000     2.2628    72.8935      .4959      .7665
 8056.0000     2.2515    73.4699      .4820      .7869
 8056.5000     2.2468    74.8750      .4661      .8276
 8057.0000     2.2445    76.3281      .5032      .8204
 8057.5000     2.2421    77.2387      .4956      .7822
 8058.0000     2.2381    79.9760      .5075      .7498
 8058.5000     2.2309    79.1054      .5052      .7444
 8059.0000     2.2256    78.5725      .4885      .7579
 8059.5000     2.2224    74.5550      .5158      .7675
 8060.0000     2.2221    74.2031      .5013      .7867
 8060.5000     2.2265    74.9032      .5274      .8074
 8061.0000     2.2370    78.0926      .5837      .8226
 8061.5000     2.2516    78.2377      .5868      .8321
 8062.0000     2.2660    80.4935      .5524      .8334
 8062.5000     2.2755    80.7619      .4715      .8546
 8063.0000     2.2799    79.1336      .4760      .8792
 8063.5000     2.2809    79.6869      .4638      .8621
 8064.0000     2.2799    82.7652      .4959      .8079
 8064.5000     2.2798    86.1009      .4585      .7541
 8065.0000     2.2769    82.8147      .4390      .6845
 8065.5000     2.2699    83.3410      .4284      .6485
 8066.0000     2.2587    80.5507      .4338      .6785
 8066.5000     2.2451    87.1089      .4432      .7334
 8067.0000     2.2327    83.5923      .4590      .8045
 8067.5000     2.2237    83.9996      .4879      .8585
 8068.0000     2.2222    79.2039      .5745      .8932
 8068.5000     2.2288    77.7307      .5515      .9141
 8069.0000     2.2401    75.0566      .5244      .9175
 8069.5000     2.2486    73.7390      .5049      .8908
 8070.0000     2.2480    73.5891      .5541      .8649
 8070.5000     2.2385    76.9570      .5978      .8337
 8071.0000     2.2275    78.6587      .5587      .8174
 8071.5000     2.2218    80.5776      .4764      .8174
 8072.0000     2.2222    77.9981      .4575      .8177
 8072.5000     2.2268    75.0606      .4847      .8143
 8073.0000     2.2315    75.6979      .5378      .8114
 8073.5000     2.2357    73.1539      .5303      .8093
 8074.0000     2.2396    74.8829      .5854      .8100
 8074.5000     2.2414    74.2041      .5822      .8098
 8075.0000     2.2437    76.2905      .6049      .8139
 8075.5000     2.2449    73.8324      .5463      .8197
 8076.0000     2.2464    77.7188      .5601      .8226
 8076.5000     2.2460    79.9970      .5745      .8217
 8077.0000     2.2475    83.0454      .6347      .8226
 8077.5000     2.2473    83.9887      .6089      .8277
 8078.0000     2.2452    82.1531      .5358      .8355
 8078.5000     2.2410    80.5848      .4672      .8388
 8079.0000     2.2414    79.0637      .4678      .8422
 8079.5000     2.2451    79.1628      .5043      .8456
 8080.0000     2.2493    78.9974      .5225      .8463
 8080.5000     2.2466    78.1893      .5123      .8417
 8081.0000     2.2396    78.1642      .4845      .8294
 8081.5000     2.2336    80.3230      .4793      .8242
 8082.0000     2.2306    79.6564      .4875      .8235
 8082.5000     2.2248    79.3341      .4806      .8233
 8083.0000     2.2050    78.5792      .4819      .8290
 8083.5000     2.1797    79.3184      .4955      .8206
 8084.0000     2.1740    77.7465      .5444      .8067
 8084.5000     2.1898    75.8279      .6557      .8005
 8085.0000     2.2030    75.1366      .6950      .7875
 8085.5000     2.2232    76.3334      .6540      .7808
 8086.0000     2.2457    78.1022      .6444      .7765
 8086.5000     2.2564    81.0465      .6439      .7512
 8087.0000     2.2335    81.1829      .6398      .7341
 8087.5000     2.2001    79.1786      .6374      .7293
 8088.0000     2.1900    77.3030      .5810      .7237
 8088.5000     2.1976    75.3720      .5697      .7259
 8089.0000     2.2100    76.3230      .5291      .7290
 8089.5000     2.2235    76.1367      .5003      .7399
 8090.0000     2.2299    77.7469      .4786      .7331
 8090.5000     2.2324    77.0331      .4794      .7324
 8091.0000     2.2453    76.9498      .5185      .7416
 8091.5000     2.2643    77.4905      .5867      .7597
 8092.0000     2.2769    78.7236      .6673      .7732
 8092.5000     2.2716    80.0268      .5324      .7633
 8093.0000     2.2577    76.3854      .4791      .7598
 8093.5000     2.2473    75.1284      .4700      .7663
 8094.0000     2.2408    76.0676      .4778      .7691
 8094.5000     2.2371    78.0319      .4895      .7825
 8095.0000     2.2332    78.9481      .4681      .7990
 8095.5000     2.2311    75.0804      .4673      .8018
 8096.0000     2.2320    75.3980      .4587      .7957
 8096.5000     2.2342    75.6448      .4916      .7878
 8097.0000     2.2372    80.3794      .5112      .7771
 8097.5000     2.2398    84.0313      .5239      .7629
 8098.0000     2.2412    83.1287      .5144      .7572
 8098.5000     2.2392    80.0318      .5142      .7632
 8099.0000     2.2336    72.5329      .5639      .7727
 8099.5000     2.2324    72.7881      .5540      .7578
 8100.0000     2.2353    73.8801      .5322      .7268
 8100.5000     2.2418    74.9477      .4856      .7212
 8101.0000     2.2472    76.7014      .5153      .7320
 8101.5000     2.2496    78.8354      .5853      .7206
 8102.0000     2.2507    80.4290      .6484      .6995
 8102.5000     2.2526    80.2681      .6210      .6821
 8103.0000     2.2586    79.0577      .5738      .6775
 8103.5000     2.2657    81.2512      .5500      .6739
 8104.0000     2.2695    84.3814      .4826      .6660
 8104.5000     2.2666    83.6688      .4941      .6674
 8105.0000     2.2496    81.5114      .4788      .6947
 8105.5000     2.2139    76.4687      .5853      .7279
 8106.0000     2.1767    70.5257      .5914      .7610
 8106.5000     2.1817    70.2438      .6131      .7907
 8107.0000     2.2239    72.4745      .5512      .7994
 8107.5000     2.2652    74.9353      .4639      .8094
 8108.0000     2.2723    75.6773      .4382      .8076
 8108.5000     2.2622    76.9236      .4507      .8133
 8109.0000     2.2619    80.0963      .4515      .8182
 8109.5000     2.2702    81.7560      .4570      .8086
 8110.0000     2.2735    80.1769      .5097      .7993
 8110.5000     2.2667    80.1616      .6092      .7868
 8111.0000     2.2531    77.6426      .6428      .7658
 8111.5000     2.2264    77.4234      .5619      .7525
 8112.0000     2.1821    73.1824      .5213      .7615
 8112.5000     2.1489    71.3471      .5187      .7824
 8113.0000     2.1745    75.8263      .5288      .7985
 8113.5000     2.2318    78.4813      .5346      .7496
 8114.0000     2.2658    82.2124      .5339      .6547
 8114.5000     2.2399    80.1574      .5731      .5483
 8115.0000     2.1923    80.5883      .4813      .4638
 8115.5000     2.1703    78.9217      .5161      .4342
 8116.0000     2.1876    82.1872      .5596      .4853
 8116.5000     2.2144    83.5385      .6271      .4860
