~VERSION INFORMATION
VERS.                                                 2.0:   CWLS Log ASCII Standard-VERSION 2.0
WRAP.                                                  NO:   One line per depth step
~Well Information Block
STRT.F                                          5633.5000:   Top Depth
STOP.F                                          9740.0000:   Bottom Depth
STEP.F                                             .50000:   Depth Increment
NULL.                                            -999.250:   Null Value
FLD .                                             FREEMAN:   Field Name
WELL.                                     FREEMAN-003-ST1:   NAME
COMP.                                                SPDC:   OPERATOR
UWBI.                                      40000000257402:   UWBI
~PARAMETER INFORMATION (log)
LNAM.                                              PUBLIC:   NAME
LTYP.                                         INTERPRETED:   LOG TYPE
LSRV.                                          EVALUATION:   SERVICE
LVSN.                                                   1:   LOG VERSION
BHIS.                                                  RC:   BRIEF HISTORY
FHIS.                                     RAW-LAS/PUBLISH:   FULL HISTORY
CN  .                                              SNEPCO:   OPERATOR
DATE.                         Wednesday, March 11 2009 07:   RUN DATE
~Curve Information Block
#MNEM.UNIT                                        API CODE    No Description
#=========                                        ========    == ===========
DEPT.F     FT. MD                            00 001 00 00:     1  DEPTH
DEN.G/C3                                                 :     2  Bulk Density                  =rhoz_jr
DT.US/F                                                  :     3  Delta-T Compressional
GR.API                                                   :     4  Gamma Ray                     =ecgr_j
NEU.FRAC                                                 :     5  Neutron Porosity in Limestone =tnph_j
RES_DEP.OHMM                                             :     6  Resistivity Deep              =resd_jr
~ASCII
# ...
 8622.5000     2.1826   142.1000    72.3510      .4754      .6957
 8623.0000     2.1827   137.2000    74.5142      .4864      .7034
 8623.5000     2.1816   140.9000    76.8874      .4258      .7209
 8624.0000     2.1776   140.9000    77.0870      .4497      .7440
 8624.5000     2.1765   140.9000    79.0072      .4309      .7497
 8625.0000     2.1837   142.8000    84.5361      .4327      .7616
 8625.5000     2.1880   140.6000    82.8987      .4529      .7614
 8626.0000     2.1754   147.8000    77.8572      .5521      .7507
 8626.5000     2.1544   141.9000    71.6181      .7198      .7420
 8627.0000     2.1481   146.4000    73.6919      .7585      .7329
 8627.5000     2.1632   143.5000    79.5441      .5951      .7207
 8628.0000     2.1778   139.7000    79.0039      .4938      .7158
 8628.5000     2.1743   146.8000    79.3555      .4858      .7240
 8629.0000     2.1628   144.9000    72.9247      .5883      .7392
 8629.5000     2.1558   143.2000    72.5106      .6983      .7466
 8630.0000     2.1501   142.9000    71.4088      .7727      .7496
 8630.5000     2.1462   140.8000    67.7124      .5660      .7523
 8631.0000     2.1650   140.8000    59.5978      .4606      .7619
 8631.5000     2.2132   138.9000    63.5052      .4627      .7507
 8632.0000     2.2525   140.8000    70.0527      .4925      .7425
 8632.5000     2.2523   139.2000    75.7832      .5452      .7404
 8633.0000     2.2190   138.0000    75.4164      .6127      .7530
 8633.5000     2.1874   136.7000    75.2260      .5136      .7707
 8634.0000     2.1781   141.1000    83.0909      .4573      .7889
 8634.5000     2.1887   138.4000    87.5643      .4265      .7994
 8635.0000     2.2060   140.6000    93.4618      .4552      .7939
 8635.5000     2.2160   138.7000    88.5664      .4915      .7905
 8636.0000     2.2182   141.3000    89.2133      .4709      .7881
 8636.5000     2.2231   140.0000    89.5170      .4423      .7818
 8637.0000     2.2319   139.9000    92.8767      .4997      .7674
 8637.5000     2.2416   140.5000    95.0711      .5541      .7500
 8638.0000     2.2471   141.8000    93.6770      .5970      .7422
 8638.5000     2.2402   141.3000    94.4099      .5528      .7518
 8639.0000     2.2221   140.7000    88.7062      .5487      .7728
 8639.5000     2.2118   140.7000    84.3398      .6091      .7880
 8640.0000     2.2215   138.9000    80.5008      .6265      .7738
 8640.5000     2.2282   142.6000    80.2947      .6458      .7539
 8641.0000     2.2100   139.7000    80.0584      .5838      .7369
 8641.5000     2.1888   140.8000    81.4198      .5534      .7155
 8642.0000     2.1985   139.2000    83.0810      .4541      .7088
 8642.5000     2.2269   136.4000    85.6982      .4109      .7241
 8643.0000     2.2416   136.4000    86.0051      .4284      .7416
 8643.5000     2.2385   140.2000    84.2400      .5135      .7601
 8644.0000     2.2371   138.6000    82.0151      .5979      .7709
 8644.5000     2.2451   137.1000    76.0658      .6273      .7672
 8645.0000     2.2565   137.5000    75.4430      .5482      .7565
 8645.5000     2.2637   136.7000    74.9761      .5675      .7506
 8646.0000     2.2569   140.3000    82.9431      .5561      .7575
 8646.5000     2.2351   137.4000    88.5515      .6855      .7716
 8647.0000     2.2180   137.7000   100.7120      .5030      .7889
 8647.5000     2.2259   139.0000    96.4813      .5273      .8060
 8648.0000     2.2519   134.4000    91.9741      .4589      .8124
 8648.5000     2.2712   135.5000    84.4686      .5880      .8072
 8649.0000     2.2729   136.4000    84.1665      .5199      .8017
 8649.5000     2.2677   136.4000    85.3738      .4713      .7883
 8650.0000     2.2632   140.2000    91.0506      .4604      .7670
 8650.5000     2.2527   138.8000    94.0884      .5289      .7554
 8651.0000     2.2374   139.8000    97.4747      .5048      .7628
 8651.5000     2.2317   140.0000    99.5770      .5483      .7681
 8652.0000     2.2393   136.1000    98.5464      .4887      .7740
 8652.5000     2.2466   142.6000    98.0222      .5677      .7861
 8653.0000     2.2408   138.6000    90.9714      .6850      .7878
 8653.5000     2.2275   138.7000    88.8155      .8952      .7926
 8654.0000     2.2245   138.3000    91.0167      .7824      .8072
 8654.5000     2.2405   135.5000    94.5738      .6283      .8307
 8655.0000     2.2628   135.5000    97.0769      .4839      .8419
 8655.5000     2.2726   137.7000    93.2858      .5151      .8322
 8656.0000     2.2651   137.7000    92.8538      .5148      .8204
 8656.5000     2.2506   138.5000    88.4821      .6647      .8250
 8657.0000     2.2375   138.8000    93.0966      .7421      .8310
 8657.5000     2.2251   135.5000    89.9769     1.1119      .8190
 8658.0000     2.2179   138.4000    83.5016     1.2598      .8027
 8658.5000     2.2254   137.5000    82.0567      .8452      .8075
 8659.0000     2.2451   137.5000    75.2233      .5508      .8348
 8659.5000     2.2606   137.9000    75.2403      .4816      .8384
 8660.0000     2.2595   137.5000    71.1213      .5202      .8393
 8660.5000     2.2470   138.8000    76.2577      .5563      .8431
 8661.0000     2.2369   138.6000    79.3073      .5675      .8426
 8661.5000     2.2332   137.8000    83.4862      .5477      .8400
 8662.0000     2.2321   138.0000    82.3693      .6895      .8408
 8662.5000     2.2305   138.0000    84.1854      .7550      .8489
 8663.0000     2.2295   137.5000    85.5648      .7988      .8417
 8663.5000     2.2306   137.7000    89.4970      .5741      .8301
 8664.0000     2.2320   137.0000    87.0909      .6700      .8287
 8664.5000     2.2325   137.4000    86.1896      .6536      .8380
 8665.0000     2.2329   136.7000    85.9417      .6779      .8517
 8665.5000     2.2333   137.1000    81.8082      .6161      .8618
 8666.0000     2.2314   138.4000    80.5457      .6372      .8605
 8666.5000     2.2269   138.0000    80.4840      .7778      .8322
 8667.0000     2.2231   138.0000    84.3246      .7981      .8021
 8667.5000     2.2240   140.7000    78.7595      .6994      .7885
 8668.0000     2.2291   140.3000    78.1358      .6116      .7899
 8668.5000     2.2334   139.1000    78.4486      .5351      .7980
 8669.0000     2.2342   140.3000    81.4338      .5271      .7999
 8669.5000     2.2326   139.8000    83.5889      .5459      .7961
 8670.0000     2.2295   135.9000    85.8360      .5679      .8044
 8670.5000     2.2252   135.6000    84.8261      .5233      .8180
 8671.0000     2.2217   135.6000    83.7084      .4789      .8167
 8671.5000     2.2243   135.8000    81.9956      .4780      .8120
 8672.0000     2.2348   138.1000    84.2929      .5583      .8134
 8672.5000     2.2436   137.5000    88.2146      .6107      .8112
 8673.0000     2.2410   137.8000    96.4558      .6958      .8176
 8673.5000     2.2303   138.7000    93.2553      .5956      .8251
 8674.0000     2.2225   138.2000    85.6545      .6452      .8211
 8674.5000     2.2237   137.1000    76.3588      .5842      .8091
 8675.0000     2.2299   137.8000    77.8982      .4629      .8026
 8675.5000     2.2354   138.1000    75.7990      .4308      .8061
 8676.0000     2.2379   137.7000    80.8793      .4640      .8102
 8676.5000     2.2380   138.5000    77.0540      .5960      .8185
 8677.0000     2.2366   137.7000    80.6071      .6951      .8282
 8677.5000     2.2343   138.4000    78.7808      .7277      .8197
 8678.0000     2.2313   137.5000    79.4710      .5337      .8093
 8678.5000     2.2297   137.3000    77.9677      .5298      .8083
 8679.0000     2.2300   137.3000    80.5611      .7945      .8015
 8679.5000     2.2287   138.2000    83.6783      .8358      .7954
 8680.0000     2.2248   138.5000    85.7376      .5957      .7897
 8680.5000     2.2237   138.7000    86.3281      .5370      .7894
 8681.0000     2.2266   139.0000    86.8985      .6085      .7854
 8681.5000     2.2274   139.1000    88.7647      .6699      .7756
 8682.0000     2.2234   139.5000    87.7694      .6925      .7702
 8682.5000     2.2191   139.9000    91.2574      .6608      .7635
 8683.0000     2.2204   138.9000    88.9448      .6240      .7576
