~VERSION INFORMATION
VERS.                                                 2.0:   CWLS Log ASCII Standard-VERSION 2.0
WRAP.                                                  NO:   One line per depth step
~Well Information Block
STRT.F                                          7679.0000:   Top Depth
STOP.F                                          8606.0000:   Bottom Depth
STEP.F                                             .50000:   Depth Increment
NULL.                                            -999.250:   Null Value
FLD .                                             FREEMAN:   Field Name
WELL.                                         FREEMAN-004:   NAME
CTRY.                                                 NIG:   COUNTRY
COMP.                                                SPDC:   OPERATOR
SPUD.                                          1998/05/26:   SPUD DATE
UWBI.                                      40000000257501:   UWBI
~PARAMETER INFORMATION (log)
LNAM.                                              PUBLIC:   NAME
LTYP.                                         INTERPRETED:   LOG TYPE
LSRV.                                          EVALUATION:   SERVICE
LVSN.                                                   1:   LOG VERSION
BHIS.                                                  RC:   BRIEF HISTORY
FHIS.                                     RAW-LAS/PUBLISH:   FULL HISTORY
CN  .                                              SNEPCO:   OPERATOR
~Curve Information Block
#MNEM.UNIT                                        API CODE    No Description
#=========                                        ========    == ===========
DEPT.F     FT. MD                            00 001 00 00:     1  DEPTH
DEN.G/CC                                                 :     2  Bulk Density                  =rhoz_01r
GR.API                                                   :     3  Gamma Ray                     =gr_01
NEUT.FRAC                                                :     4  Neutron Porosity              =tnph_01
RES_DEP.OHMM                                             :     5  Resistivity Deep              =aho90_1r
~ASCII
# ...
 8555.0000     2.2950    96.8201      .5220      .8924
 8555.5000     2.2941    97.0547      .5324      .8812
 8556.0000     2.2948    96.4894      .4707      .8697
 8556.5000     2.2980    96.7324      .4801      .8485
 8557.0000     2.3029    97.6257      .4904      .8455
 8557.5000     2.3052    99.6315      .4862      .8658
 8558.0000     2.3053   100.3147      .4441      .8934
 8558.5000     2.3081   104.0587      .4298      .9142
 8559.0000     2.3148   104.2487      .4296      .9119
 8559.5000     2.3196   103.9738      .4406      .9072
 8560.0000     2.3150   102.0843      .4595      .8863
 8560.5000     2.3029   101.3879      .4747      .8533
 8561.0000     2.2884   100.8957      .4913      .8105
 8561.5000     2.2826   101.9896      .4761      .7965
 8562.0000     2.2862   103.7731      .4779      .8154
 8562.5000     2.2937   107.5234      .4723      .8339
 8563.0000     2.2969   108.1741      .5449      .8488
 8563.5000     2.2937   107.0791      .5442      .8597
 8564.0000     2.2939   108.0903      .5514      .8636
 8564.5000     2.2984   106.0976      .4943      .8435
 8565.0000     2.3022   106.1259      .4873      .8090
 8565.5000     2.3008   105.6260      .4702      .7764
 8566.0000     2.2969   106.8379      .4682      .7533
 8566.5000     2.2945   109.3627      .4655      .7334
 8567.0000     2.2933   110.8990      .4533      .7195
 8567.5000     2.2947   111.4085      .4574      .7225
 8568.0000     2.3017   111.3271      .4541      .7501
 8568.5000     2.3147   112.1827      .4508      .8114
 8569.0000     2.3278   112.7865      .4393      .8542
 8569.5000     2.3373   111.8245      .4408      .8807
 8570.0000     2.3386   112.5394      .4391      .9034
 8570.5000     2.3331   112.5385      .4300      .9304
 8571.0000     2.3255   114.2600      .4307      .9427
 8571.5000     2.3194   113.5544      .4287      .9256
 8572.0000     2.3146   113.7349      .4304      .8982
 8572.5000     2.3092   114.9448      .4376      .8813
 8573.0000     2.3063   117.4568      .4529      .8694
 8573.5000     2.3083   120.6296      .4462      .8636
 8574.0000     2.3115   113.9680      .4413      .8691
 8574.5000     2.3125   106.9995      .4254      .8678
 8575.0000     2.3114    99.5395      .4165      .8845
 8575.5000     2.3092    99.5395      .4240      .9272
 8576.0000     2.3065    99.5395      .4303      .9572
 8576.5000     2.3032    99.5395      .4381      .9740
 8577.0000     2.3016    99.5395      .4329     1.0114
 8577.5000     2.3006    99.5395      .4288     1.0560
 8578.0000     2.2956    99.5395      .4173     1.1129
 8578.5000     2.2844    99.5395      .4263     1.2435
 8579.0000     2.2663    99.5395      .4283     1.3582
 8579.5000     2.2509    99.5395      .4472     1.3084
 8580.0000     2.2484    99.5395      .4745     1.1261
 8580.5000     2.2656    99.5395      .5211      .9904
 8581.0000     2.2923    99.5395      .5333      .9953
 8581.5000     2.3119    99.5395      .5945     1.0307
 8582.0000     2.3189    99.5395      .6667     1.0494
 8582.5000     2.3186    99.5395      .6667     1.0726
 8583.0000     2.3185    99.5395      .6667     1.1003
 8583.5000     2.3196    99.5395      .6667     1.1223
 8584.0000     2.3204    99.5395      .6667     1.1238
 8584.5000     2.3200    99.5395      .6667     1.0944
 8585.0000     2.3204    99.5395      .6667     1.0657
 8585.5000     2.3235    99.5395      .6667     1.0707
 8586.0000     2.3237    99.5395      .6667     1.0695
 8586.5000     2.3045    99.5395      .6667     1.0665
 8587.0000     2.2453    99.5395      .6667     1.0478
 8587.5000     2.1761    99.5395      .6667     1.0047
 8588.0000     2.1429    99.5395      .6667      .9289
 8588.5000     2.1565    99.5395      .6667      .9028
 8589.0000     2.1884    99.5395      .6667      .9256
 8589.5000     2.2042    99.5395      .6667      .9490
 8590.0000     2.2101    99.5395      .6667     1.0268
 8590.5000     2.2111    99.5395      .6667     1.0772
 8591.0000     2.2118    99.5395      .6667     1.0710
 8591.5000     2.2134    99.5395      .6667     1.0029
 8592.0000     2.2180    99.5395      .6667      .9630
 8592.5000     2.2263    99.5395      .6667      .9016
 8593.0000     2.2351    99.5395      .6667      .8245
 8593.5000     2.2406    99.5395      .6667      .8083
 8594.0000     2.2412    99.5395      .6667      .8235
 8594.5000     2.2405    99.5395      .6667      .8221
 8595.0000     2.2399    99.5395      .6667      .8063
 8595.5000     2.2394    99.5395      .6667      .8028
 8596.0000     2.2392    99.5395      .6667      .8524
 8596.5000     2.2391    99.5395      .6667      .8501
 8597.0000     2.2388    99.5395      .6667      .8562
 8597.5000     2.2385    99.5395      .6667      .9219
 8598.0000     2.2382    99.5395      .6667      .8884
 8598.5000     2.2378    99.5395      .6667      .8324
 8599.0000     2.2376    99.5395      .6667      .8517
 8599.5000     2.2381    99.5395      .6667      .8548
 8600.0000     2.3664    99.5395      .6667      .8429
 8600.5000     2.6645    99.5395      .6667      .8527
 8601.0000     2.9805    99.5395      .6667      .8779
 8601.5000  -999.2500    99.5395      .6667      .9002
 8602.0000  -999.2500    99.5395      .6667      .9118
 8602.5000  -999.2500    99.5395      .6667      .9134
 8603.0000  -999.2500    99.5395      .6667      .9088
 8603.5000  -999.2500    99.5395      .6667      .9031
 8604.0000  -999.2500    99.5395      .6667      .8985
 8604.5000  -999.2500    99.5395      .6667      .8959
 8605.0000  -999.2500    99.5395      .6667      .8950
 8605.5000  -999.2500    99.5395      .6667      .8952
 8606.0000  -999.2500    99.5395      .6667      .8958
