~VERSION INFORMATION
VERS.                                                 2.0:   CWLS Log ASCII Standard-VERSION 2.0
WRAP.                                                  NO:   One line per depth step
~Well Information Block
STRT.F                                          7679.0000:   Top Depth
STOP.F                                          8606.0000:   Bottom Depth
STEP.F                                             .50000:   Depth Increment
NULL.                                            -999.250:   Null Value
FLD .                                             FREEMAN:   Field Name
WELL.                                         FREEMAN-004:   NAME
CTRY.                                                 NIG:   COUNTRY
COMP.                                                SPDC:   OPERATOR
SPUD.                                          1998/05/26:   SPUD DATE
UWBI.                                      40000000257501:   UWBI
~PARAMETER INFORMATION (log)
LNAM.                                              PUBLIC:   NAME
LTYP.                                         INTERPRETED:   LOG TYPE
LSRV.                                          EVALUATION:   SERVICE
LVSN.                                                   1:   LOG VERSION
BHIS.                                                  RC:   BRIEF HISTORY
FHIS.                                     RAW-LAS/PUBLISH:   FULL HISTORY
CN  .                                              SNEPCO:   OPERATOR
~Curve Information Block
#MNEM.UNIT                                        API CODE    No Description
#=========                                        ========    == ===========
DEPT.F     FT. MD                            00 001 00 00:     1  DEPTH
DEN.G/CC                                                 :     2  Bulk Density                  =rhoz_01r
GR.API                                                   :     3  Gamma Ray                     =gr_01
NEUT.FRAC                                                :     4  Neutron Porosity              =tnph_01
RES_DEP.OHMM                                             :     5  Resistivity Deep              =aho90_1r
~ASCII
# ...
 8190.0000     2.2932    83.5878      .5068      .9656
 8190.5000     2.2850    86.0648      .4874      .9705
 8191.0000     2.2815    86.2729      .4571      .9889
 8191.5000     2.2814    89.0892      .4490     1.0053
 8192.0000     2.2884    83.9579      .4710     1.0233
 8192.5000     2.2985    81.5231      .5263     1.0438
 8193.0000     2.2982    79.8597      .5108     1.0626
 8193.5000     2.2886    79.9557      .5024     1.0601
 8194.0000     2.2748    84.4534      .4615     1.0540
 8194.5000     2.2661    84.8211      .4640     1.0565
 8195.0000     2.2604    85.5697      .4267     1.0585
 8195.5000     2.2590    81.3364      .4641     1.0339
 8196.0000     2.2588    79.0559      .5080     1.0089
 8196.5000     2.2611    78.5293      .4887      .9861
 8197.0000     2.2634    80.9618      .4416      .9699
 8197.5000     2.2678    83.6850      .4492      .9676
 8198.0000     2.2724    84.4418      .4619      .9610
 8198.5000     2.2731    83.4443      .4633      .9597
 8199.0000     2.2716    81.7853      .4358      .9465
 8199.5000     2.2690    81.1715      .4526      .9175
 8200.0000     2.2683    80.9745      .4485      .9031
 8200.5000     2.2680    81.8968      .4321      .9241
 8201.0000     2.2682    83.9443      .4234     1.0016
 8201.5000     2.2744    86.1292      .4062     1.0994
 8202.0000     2.2881    88.3712      .4103     1.1438
 8202.5000     2.3019    88.0321      .4251     1.1608
 8203.0000     2.3103    87.7472      .4110     1.1342
 8203.5000     2.3126    88.4318      .4004     1.1165
 8204.0000     2.3166    89.8957      .3639     1.1532
 8204.5000     2.3268    86.1051      .3897     1.1884
 8205.0000     2.3376    87.0092      .3967     1.2502
 8205.5000     2.3437    82.9150      .3877     1.2922
 8206.0000     2.3445    83.9528      .3670     1.3471
 8206.5000     2.3416    84.9430      .3634     1.3824
 8207.0000     2.3343    85.0214      .3822     1.4035
 8207.5000     2.3183    83.0440      .4248     1.3562
 8208.0000     2.2984    81.6513      .4532     1.3134
 8208.5000     2.2806    84.2742      .4361     1.2577
 8209.0000     2.2726    86.8883      .4128     1.1927
 8209.5000     2.2768    85.2293      .4051     1.1144
 8210.0000     2.2898    84.9863      .4225     1.0719
 8210.5000     2.2998    85.2066      .4447     1.0617
 8211.0000     2.3036    83.0643      .4590     1.0452
 8211.5000     2.3047    83.0247      .4938     1.0320
 8212.0000     2.3100    84.5664      .4887     1.0207
 8212.5000     2.3165    87.7740      .4812     1.0145
 8213.0000     2.3239    90.3790      .4494     1.0528
 8213.5000     2.3194    89.2443      .4187     1.1252
 8214.0000     2.2719    80.9876      .3348     1.4718
 8214.5000     2.1662    65.3233      .1936     2.8860
 8215.0000     2.0267    49.4172      .1329     5.1969
 8215.5000     1.9129    39.9846      .1095     7.8417
 8216.0000     1.8552    37.6954      .1265     7.6778
 8216.5000     1.8671    43.9157      .1814     4.5787
 8217.0000     1.9471    54.3736      .2902     2.1117
 8217.5000     2.0661    60.7745      .3749     1.4143
 8218.0000     2.1521    60.3939      .3509     1.7642
 8218.5000     2.1624    57.1271      .2877     3.0320
 8219.0000     2.1192    52.0163      .2316     4.2099
 8219.5000     2.0818    48.9934      .2213     3.8391
 8220.0000     2.0558    53.6519      .2394     4.2093
 8220.5000     2.0132    53.7243      .2149     5.1292
 8221.0000     1.9443    47.9145      .1721     6.3599
 8221.5000     1.8789    43.2251      .1512     5.5757
 8222.0000     1.8583    40.6018      .1443     4.4915
 8222.5000     1.8836    42.0756      .1709     3.4089
 8223.0000     1.9399    46.4394      .2223     2.4461
 8223.5000     2.0088    53.5396      .2973     1.4796
 8224.0000     2.0982    64.3742      .4051     1.0705
 8224.5000     2.1912    70.7530      .5649      .9553
 8225.0000     2.2586    75.7653      .7790      .8832
 8225.5000     2.2870    76.6696      .7238      .8240
 8226.0000     2.2896    76.0065      .6188      .8138
 8226.5000     2.2874    71.4822      .5121      .8066
 8227.0000     2.2864    70.8902      .4793      .8015
 8227.5000     2.2863    70.2098      .4690      .7799
 8228.0000     2.2888    72.3385      .4694      .8174
 8228.5000     2.2915    73.5171      .4655      .8688
 8229.0000     2.2954    72.1954      .4578      .8724
 8229.5000     2.2931    71.8311      .4489      .8718
 8230.0000     2.2878    73.6082      .4866      .8863
 8230.5000     2.2925    76.0379      .4961      .8943
 8231.0000     2.3034    77.0889      .4969      .8771
 8231.5000     2.3075    78.1656      .4622      .8711
 8232.0000     2.3004    77.7746      .4547      .8840
 8232.5000     2.2906    76.5169      .4557      .8788
 8233.0000     2.2892    77.5829      .4729      .8616
 8233.5000     2.2908    79.3662      .5178      .8661
 8234.0000     2.2967    82.5348      .5101      .8930
 8234.5000     2.3013    80.2088      .5014      .9066
 8235.0000     2.2993    78.6889      .5206      .8466
 8235.5000     2.2910    74.3316      .5441      .7831
 8236.0000     2.2813    76.5897      .5280      .7768
 8236.5000     2.2777    75.8439      .4615      .7926
 8237.0000     2.2832    80.8992      .4605      .8511
 8237.5000     2.2916    83.6905      .4572      .9237
 8238.0000     2.3029    84.7359      .4434      .9174
 8238.5000     2.3109    86.3919      .4218      .9302
 8239.0000     2.3141    81.9823      .4343      .9581
 8239.5000     2.3149    83.6535      .4345      .9535
 8240.0000     2.3183    84.3352      .4970      .9048
 8240.5000     2.3206    84.8453      .5417      .8504
 8241.0000     2.3171    84.4131      .5029      .8672
 8241.5000     2.3050    83.6184      .4784      .9130
 8242.0000     2.2948    86.5518      .4523      .9320
 8242.5000     2.2922    84.0828      .4749      .9078
 8243.0000     2.2942    82.5920      .5148      .8885
 8243.5000     2.2944    78.7306      .5338      .8764
 8244.0000     2.2922    77.7350      .5219      .8628
 8244.5000     2.2969    77.1408      .4737      .8698
 8245.0000     2.3111    80.1686      .4278      .8897
 8245.5000     2.3233    84.0103      .3811      .9091
 8246.0000     2.3276    84.5325      .3807      .9157
 8246.5000     2.3281    85.5031      .4080      .9098
 8247.0000     2.3293    86.3714      .4617      .9375
 8247.5000     2.3281    82.8618      .4892      .9932
 8248.0000     2.3238    78.7436      .4062     1.0487
 8248.5000     2.3178    78.5968      .3979     1.0534
 8249.0000     2.3134    80.7768      .3963     1.0100
 8249.5000     2.3081    82.9880      .4239      .9965
 8250.0000     2.3102    85.3407      .4251      .9689
 8250.5000     2.3230    90.2738      .4644      .9179
 8251.0000     2.3328    90.1319      .4874      .8501
 8251.5000     2.3306    88.2878      .4971      .7603
 8252.0000     2.3170    88.6745      .4828      .6255
 8252.5000     2.3063    92.2559      .4831      .4583
 8253.0000     2.3020    93.7667      .4986      .4130
 8253.5000     2.3034    85.8643      .4659      .4476
 8254.0000     2.3047    81.0016      .4470      .4820
 8254.5000     2.2998    77.9360      .4420      .5480
 8255.0000     2.2957    79.3180      .4755      .6676
 8255.5000     2.2960    79.1267      .5069      .8129
 8256.0000     2.3027    80.3912      .5201      .9132
 8256.5000     2.3093    80.3562      .4823      .9705
 8257.0000     2.3128    80.6351      .4464     1.0318
 8257.5000     2.3147    78.1214      .4421     1.0644
 8258.0000     2.3173    77.5199      .4165     1.0777
 8258.5000     2.3120    75.4036      .4379     1.0883
 8259.0000     2.2926    73.3671      .3921     1.1213
 8259.5000     2.2709    67.5560      .4026     1.1792
 8260.0000     2.2742    66.9640      .3740     1.2049
 8260.5000     2.2944    66.9611      .3778     1.1818
 8261.0000     2.3088    68.6900      .4028     1.1698
 8261.5000     2.3056    70.6455      .4217     1.1941
 8262.0000     2.3038    70.6707      .4494     1.2050
 8262.5000     2.3083    70.4814      .4425     1.1493
