~VERSION INFORMATION
VERS.                                                 2.0:   CWLS Log ASCII Standard-VERSION 2.0
WRAP.                                                  NO:   One line per depth step
~Well Information Block
STRT.F                                          7564.5000:   Top Depth
STOP.F                                         11357.0000:   Bottom Depth
STEP.F                                             .50000:   Depth Increment
NULL.                                            -999.250:   Null Value
FLD .                                             FREEMAN:   Field Name
WELL.                                     FREEMAN-004-ST1:   NAME
CTRY.                                                 NIG:   COUNTRY
COMP.                                                SPDC:   OPERATOR
SPUD.                                          1998/05/26:   SPUD DATE
UWBI.                                      40000000257502:   UWBI
~PARAMETER INFORMATION (log)
LNAM.                                                                   PUBLIC:   NAME
LTYP.                                                              INTERPRETED:   LOG TYPE
LSRV.                                                               EVALUATION:   SERVICE
LVSN.                                                                        1:   LOG VERSION
BHIS.                                                                       RC:   BRIEF HISTORY
FHIS.                                                          RAW-LAS/PUBLISH:   FULL HISTORY
CN  .        SHELL NIGERIA EXPLORATION AND PRODUCTION COMPANY LIMITED (SNEPCO):   OPERATOR
~Curve Information Block
#MNEM.UNIT                                                             API CODE    No Description
#=========                                                             ========    == ===========
DEPT.F     FT. MD                            00 001 00 00:     1  DEPTH
DEN.G/CC                                                 :     2  Bulk Density                  =rhoz_e
DT.US/F                                                  :     3  Sonic (Compressional)         =dtlf_e
GR.API                                                   :     4  Gamma Ray                     =ecgr_02
NEUT.FRAC                                                :     5  Neutron Porosity              =nphi_02
RES_DEP.OHMM                                             :     6  Resistivity Deep              =aho90_r
~ASCII
# ...
 9577.5000     2.3665   110.7454   109.3487      .3704     1.2176
 9578.0000     2.3618   110.1074   111.2180      .3480     1.2745
 9578.5000     2.3614   110.0553   111.4658      .3595     1.3389
 9579.0000     2.3660   110.8626   113.1587      .3565     1.3235
 9579.5000     2.3713   110.0196   108.5948      .3727     1.2948
 9580.0000     2.3746   110.3613   110.8258      .3784     1.2373
 9580.5000     2.3757   110.7747   113.5823      .3890     1.2344
 9581.0000     2.3797   110.1888   112.8765      .3859     1.2400
 9581.5000     2.3835   110.4492   113.7753      .3741     1.2019
 9582.0000     2.3829   110.5404   109.3574      .3813     1.2175
 9582.5000     2.3776   109.6256   114.6486      .3900     1.2739
 9583.0000     2.3730   109.6484   115.9472      .3885     1.3594
 9583.5000     2.3762   109.3262   123.7869      .3788     1.3726
 9584.0000     2.3798   109.1960   127.7106      .3745     1.2867
 9584.5000     2.3826   109.6224   128.7872      .4110     1.2217
 9585.0000     2.3821   109.5866   121.3133      .4109     1.2107
 9585.5000     2.3836   109.3034   118.4499      .4107     1.2310
 9586.0000     2.3837   109.4889   118.4252      .3903     1.2461
 9586.5000     2.3835   110.3353   119.4265      .3967     1.2624
 9587.0000     2.3820   110.5078   115.9415      .4009     1.2406
 9587.5000     2.3847   110.1400   115.6749      .3811     1.2238
 9588.0000     2.3903   110.2474   121.2766      .3572     1.2657
 9588.5000     2.3935   109.6289   121.5323      .3556     1.3364
 9589.0000     2.3924   108.9974   119.9356      .3651     1.3200
 9589.5000     2.3874   109.9902   116.4546      .3964     1.2775
 9590.0000     2.3900   109.4043   117.4647      .3872     1.2769
 9590.5000     2.3978   109.4043   120.1184      .3760     1.2596
 9591.0000     2.4078   109.7526   126.1251      .3702     1.2692
 9591.5000     2.4124   109.7526   126.1864      .3437     1.3316
 9592.0000     2.4062   109.9381   122.2852      .3456     1.4084
 9592.5000     2.3939   109.6777   119.1141      .3439     1.4831
 9593.0000     2.3866   109.8145   121.9439      .3634     1.5080
 9593.5000     2.3911   109.9316   119.2067      .3704     1.4605
 9594.0000     2.3971   109.9968   114.5746      .3655     1.3709
 9594.5000     2.3961   109.7754   113.0164      .4001     1.3326
 9595.0000     2.3946   109.2936   123.4972      .3933     1.2959
 9595.5000     2.3973   108.8249   126.6896      .3734     1.2616
 9596.0000     2.4001   108.2780   128.8052      .3425     1.2419
 9596.5000     2.3986   108.3431   125.8681      .3648     1.2401
 9597.0000     2.3985   108.7825   119.5675      .4025     1.2720
 9597.5000     2.4008   109.1862   116.9697      .4074     1.2859
 9598.0000     2.3996   109.5313   109.4054      .4211     1.2465
 9598.5000     2.3946   109.1276   110.4550      .4001     1.1680
 9599.0000     2.3920   108.7272   111.7109      .4158     1.1957
 9599.5000     2.3918   108.9160   116.0364      .3674     1.1981
 9600.0000     2.3842   108.9030   118.0899      .3695     1.2385
 9600.5000     2.3687   108.7272   116.9706      .3882     1.3016
 9601.0000     2.3596   108.3268   114.2650      .4177     1.3527
 9601.5000     2.3657   108.7598   113.5571      .4242     1.3723
 9602.0000     2.3789   109.0755   117.3612      .3829     1.3819
 9602.5000     2.3842   108.8346   113.7249      .3551     1.3639
 9603.0000     2.3815   109.3457   114.8019      .3536     1.3333
 9603.5000     2.3804   109.7396   108.9212      .3561     1.3130
 9604.0000     2.3907   108.6588   115.9895      .3747     1.3088
 9604.5000     2.4044   108.1022   117.2152      .3710     1.3391
 9605.0000     2.4116   107.3991   123.8379      .3744     1.3649
 9605.5000     2.4077   107.5000   127.0995      .3566     1.3849
 9606.0000     2.3996   108.0762   133.2285      .3705     1.3957
 9606.5000     2.3964   108.2031   129.7074      .3807     1.3843
 9607.0000     2.3918   108.0566   127.7757      .4044     1.3902
 9607.5000     2.3865   107.7669   124.1038      .3895     1.3974
 9608.0000     2.3791   107.4674   124.3109      .3727     1.4089
 9608.5000     2.3796   107.7083   118.5202      .3727     1.4011
 9609.0000     2.3825   107.8906   110.6133      .3571     1.3989
 9609.5000     2.3854   107.3633   109.6165      .3400     1.4283
 9610.0000     2.3861   108.4375   113.1910      .3286     1.4870
 9610.5000     2.3848   108.1380   118.2152      .3630     1.5294
 9611.0000     2.3848   108.8802   118.3724      .3775     1.4470
 9611.5000     2.3858   109.8633   120.7979      .4016     1.3047
 9612.0000     2.3880   109.3294   114.5124      .3864     1.2961
 9612.5000     2.3931   109.6647   113.6688      .3884     1.3091
 9613.0000     2.3982   109.1895   115.9576      .3630     1.3078
 9613.5000     2.4017   108.8932   119.9357      .3588     1.3141
 9614.0000     2.3984   108.5384   125.7598      .3521     1.3265
 9614.5000     2.3876   107.7962   119.1047      .3398     1.3289
 9615.0000     2.3733   107.2591   122.0307      .3261     1.3699
 9615.5000     2.3565   107.2754   119.9741      .3337     1.4341
 9616.0000     2.3454   106.9824   119.0659      .3498     1.5221
 9616.5000     2.3478   107.5912   117.2022      .3606     1.6014
 9617.0000     2.3698   108.0143   115.0279      .3813     1.5731
 9617.5000     2.3926   108.0696   120.5877      .3906     1.4871
 9618.0000     2.4048   108.0241   123.4491      .3953     1.4260
 9618.5000     2.4084   108.7240   122.8980      .3641     1.4139
 9619.0000     2.4091   108.1217   118.9676      .3613     1.3882
 9619.5000     2.4089   107.0931   120.0067      .3469     1.3567
 9620.0000     2.4038   106.8066   115.0551      .3422     1.3537
 9620.5000     2.4009   107.1126   117.1088      .3331     1.3993
 9621.0000     2.4021   107.1029   114.3607      .3457     1.4643
 9621.5000     2.4035   107.3047   119.5069      .3533     1.5365
 9622.0000     2.4045   107.7507   114.0031      .3628     1.5452
 9622.5000     2.4066   108.3073   113.2345      .3894     1.5071
 9623.0000     2.4117   108.4668   112.4355      .4473     1.4419
 9623.5000     2.4176   108.5547   117.1257      .4450     1.3839
 9624.0000     2.4203   108.6263   125.0164      .4023     1.3264
 9624.5000     2.4171   108.3952   123.7300      .3495     1.2974
 9625.0000     2.4091   108.1087   119.8526      .3455     1.3363
 9625.5000     2.3969   108.7077   119.8326      .3460     1.3872
 9626.0000     2.3752   108.5905   120.2552      .3473     1.5070
 9626.5000     2.3435   108.3398   118.6881      .3238     1.7308
 9627.0000     2.3156   106.4420   105.9693      .3039     2.0674
 9627.5000     2.3008   107.3405   101.3206      .2966     2.4182
 9628.0000     2.2945   110.2962   101.8796      .3399     2.4517
 9628.5000     2.2905   111.3574    96.4299      .3750     2.2460
 9629.0000     2.2758   110.1302    89.5040      .3724     2.1064
 9629.5000     2.2551   109.5898    77.2724      .2984     2.1986
 9630.0000     2.2542   108.3463    71.0743      .2743     2.6906
 9630.5000     2.2903   109.0625    72.0607      .2745     3.1344
 9631.0000     2.3427   110.2409    82.7873      .3433     2.5520
 9631.5000     2.3790   111.7350    93.6064      .3894     1.6502
 9632.0000     2.3873   114.9772   103.3267      .4357     1.3033
 9632.5000     2.3841   116.0417   105.8699      .4423     1.1960
 9633.0000     2.3685   115.8887   110.8509      .4319     1.1156
 9633.5000     2.3524   115.0488   111.8913      .4095     1.0321
 9634.0000     2.3533   113.8184   114.1063      .4174      .9712
 9634.5000     2.3706   113.5547   112.2984      .4292      .9891
 9635.0000     2.3883   113.3561   112.0620      .4240     1.0056
 9635.5000     2.3948   113.0501   110.3430      .4058      .9715
 9636.0000     2.3943   113.3203   115.2263      .3914      .9846
 9636.5000     2.3909   113.5417   112.1644      .4126     1.0103
 9637.0000     2.3846   113.6068   115.0522      .4307     1.0651
 9637.5000     2.3780   113.5742   109.3137      .4545     1.0425
 9638.0000     2.3785   111.9434   112.3827      .4288     1.0214
