~VERSION INFORMATION
VERS.                                                 2.0:   CWLS Log ASCII Standard-VERSION 2.0
WRAP.                                                  NO:   One line per depth step
~Well Information Block
STRT.F                                          7564.5000:   Top Depth
STOP.F                                         11357.0000:   Bottom Depth
STEP.F                                             .50000:   Depth Increment
NULL.                                            -999.250:   Null Value
FLD .                                             FREEMAN:   Field Name
WELL.                                     FREEMAN-004-ST1:   NAME
CTRY.                                                 NIG:   COUNTRY
COMP.                                                SPDC:   OPERATOR
SPUD.                                          1998/05/26:   SPUD DATE
UWBI.                                      40000000257502:   UWBI
~PARAMETER INFORMATION (log)
LNAM.                                                                   PUBLIC:   NAME
LTYP.                                                              INTERPRETED:   LOG TYPE
LSRV.                                                               EVALUATION:   SERVICE
LVSN.                                                                        1:   LOG VERSION
BHIS.                                                                       RC:   BRIEF HISTORY
FHIS.                                                          RAW-LAS/PUBLISH:   FULL HISTORY
CN  .        SHELL NIGERIA EXPLORATION AND PRODUCTION COMPANY LIMITED (SNEPCO):   OPERATOR
~Curve Information Block
#MNEM.UNIT                                                             API CODE    No Description
#=========                                                             ========    == ===========
DEPT.F     FT. MD                            00 001 00 00:     1  DEPTH
DEN.G/CC                                                 :     2  Bulk Density                  =rhoz_e
DT.US/F                                                  :     3  Sonic (Compressional)         =dtlf_e
GR.API                                                   :     4  Gamma Ray                     =ecgr_02
NEUT.FRAC                                                :     5  Neutron Porosity              =nphi_02
RES_DEP.OHMM                                             :     6  Resistivity Deep              =aho90_r
~ASCII
# ...
10309.5000     2.3641   114.2643   119.3618      .4318      .8351
10310.0000     2.3787   115.0814   114.8010      .4144      .8296
10310.5000     2.3890   114.2969   114.8391      .4003      .8271
10311.0000     2.3788   115.7259   120.0781      .4021      .8230
10311.5000     2.3534   115.9538   119.4955      .4011      .8099
10312.0000     2.3360   116.0319   118.0897      .3747      .7899
10312.5000     2.3384   115.6836   112.3487      .3740      .7758
10313.0000     2.3524   115.3939   118.3174      .3792      .7895
10313.5000     2.3643   115.5078   121.3400      .4207      .8033
10314.0000     2.3727   115.0098   120.4865      .4306      .8027
10314.5000     2.3760   115.2474   118.0533      .4318      .8070
10315.0000     2.3754   115.3320   116.1511      .4380      .8120
10315.5000     2.3716   115.5794   115.5989      .4332      .8201
10316.0000     2.3633   114.7070   117.2113      .4241      .8271
10316.5000     2.3592   114.0820   117.2687      .4044      .8191
10317.0000     2.3625   113.8249   123.1057      .3892      .8038
10317.5000     2.3624   113.8639   122.7915      .3982      .7928
10318.0000     2.3532   114.0723   125.7461      .3631      .7948
10318.5000     2.3419   114.4564   119.7061      .3918      .8002
10319.0000     2.3421   115.1107   122.8026      .4254      .8028
10319.5000     2.3535   114.7949   122.7325      .4567      .8126
10320.0000     2.3647   116.0872   122.8550      .4520      .8165
10320.5000     2.3727   117.5293   117.8880      .4146      .8070
10321.0000     2.3818   118.3952   117.1583      .4343      .8030
10321.5000     2.3928   117.5326   116.4394      .4552      .8022
10322.0000     2.3969   115.0749   117.1043      .4617      .8095
10322.5000     2.3930   111.8685   118.1361      .4429      .8212
10323.0000     2.4029   109.3750   125.1824      .4208      .8372
10323.5000     2.4309   109.6517   124.5029      .4236      .8428
10324.0000     2.4438   109.7494   121.7566      .4208      .8965
10324.5000     2.4274   111.3346   124.5146      .4083      .9508
10325.0000     2.3970   114.0299   125.9031      .4197      .9304
10325.5000     2.3824   113.5450   129.6743      .4309      .9171
10326.0000     2.3767   112.4447   124.8891      .4521      .9165
10326.5000     2.3682   110.4557   124.4783      .4260      .9190
10327.0000     2.3663   109.8340   123.9522      .4354      .9389
10327.5000     2.3753   109.2188   123.5665      .4105      .9799
10328.0000     2.3840   108.6881   124.5830      .4424     1.0376
10328.5000     2.3832   108.0468   126.2651      .4002     1.0818
10329.0000     2.3768   109.5508   128.7452      .4116     1.0702
10329.5000     2.3753   109.6614   128.3349      .4068     1.0108
10330.0000     2.3805   110.2474   128.0517      .4279      .9530
10330.5000     2.3875   110.2246   126.0583      .4424      .9292
10331.0000     2.3946   108.8119   124.8956      .4252      .9476
10331.5000     2.3964   108.9876   128.8490      .4218      .9886
10332.0000     2.3927   110.2865   129.4980      .4284     1.0014
10332.5000     2.3914   108.6003   131.8308      .4321      .9340
10333.0000     2.3961   108.7533   121.3407      .4703      .8404
10333.5000     2.4026   109.2415   122.0152      .4415      .7711
10334.0000     2.4035   108.1999   119.3053      .4355      .7217
10334.5000     2.3980   107.7506   128.1366      .3818      .6035
10335.0000     2.3920   107.4740   127.8771      .3866      .5776
10335.5000     2.3894   106.9792   128.7215      .3965      .6238
10336.0000     2.3951   107.3307   126.9653      .4401      .6826
10336.5000     2.4039   108.0762   125.3586      .4524      .7388
10337.0000     2.4065   108.9485   125.9747      .4275      .7563
10337.5000     2.4004   109.9219   120.1397      .4037      .7449
10338.0000     2.3901   110.2702   116.6478      .4054      .7504
10338.5000     2.3833   110.2734   113.7373      .4236      .7358
10339.0000     2.3775   110.7585   119.4089      .4125      .7000
10339.5000     2.3735   110.6185   126.3357      .4096      .6877
10340.0000     2.3704   110.0260   127.4818      .3978      .6910
10340.5000     2.3658   110.4395   127.2369      .4243      .7150
10341.0000     2.3623   110.9440   126.6901      .4124      .7507
10341.5000     2.3669   110.7455   129.4611      .4321      .7907
10342.0000     2.3777   110.1595   130.9070      .4186      .8393
10342.5000     2.3831   110.0814   131.7751      .4254      .8324
10343.0000     2.3758   110.2441   128.7900      .4126      .8681
10343.5000     2.3715   110.4004   127.2076      .4412      .9302
10344.0000     2.3826   111.4779   126.0332      .4444      .9201
10344.5000     2.3978   111.5592   123.9329      .4528      .8888
10345.0000     2.3983   111.8457   123.9987      .4141      .8893
10345.5000     2.3825   112.0247   119.4064      .4195      .9070
10346.0000     2.3667   111.5234   123.6861      .4076      .9359
10346.5000     2.3590   111.1393   123.9423      .4008      .9436
10347.0000     2.3606   110.8789   127.0893      .3815      .9168
10347.5000     2.3670   112.6302   121.2552      .4207      .8774
10348.0000     2.3706   113.6100   117.7115      .4234      .8466
10348.5000     2.3696   115.5501   111.7430      .4136      .8306
10349.0000     2.3651   116.7675   110.2065      .4000      .8268
10349.5000     2.3607   118.0892   109.3129      .4043      .8233
10350.0000     2.3563   118.4603   113.4857      .4406      .8140
10350.5000     2.3499   118.6003   115.9132      .4334      .7913
10351.0000     2.3451   119.3327   118.4064      .4455      .7653
10351.5000     2.3419   120.2669   115.5480      .4631      .7574
10352.0000     2.3382   120.5924   118.1710      .4579      .7458
10352.5000     2.3349   120.8594   113.5560      .4530      .7305
10353.0000     2.3307   120.2799   117.1413      .4274      .7124
10353.5000     2.3366   118.8509   115.5135      .4348      .6948
10354.0000     2.3510   118.6100   120.5564      .4270      .6889
10354.5000     2.3622   118.6393   116.6868      .4092      .7010
10355.0000     2.3655   118.3105   116.0904      .4080      .7170
10355.5000     2.3645   118.4993   115.6962      .4321      .7205
10356.0000     2.3638   118.0241   125.8430      .4476      .7317
10356.5000     2.3595   117.7311   129.9952      .4783      .7450
10357.0000     2.3447   119.6582   132.2446      .4527      .7219
10357.5000     2.3317   120.2767   126.0814      .4421      .7187
10358.0000     2.3337   121.2500   128.7889      .4112      .7260
10358.5000     2.3530   120.3906   127.2856      .4260      .7222
10359.0000     2.3711   119.5052   130.1769      .4531      .7204
10359.5000     2.3686   120.1497   131.1959      .4336      .7219
10360.0000     2.3520   119.9121   133.5735      .4248      .7235
10360.5000     2.3388   119.4759   134.4231      .3980      .7286
10361.0000     2.3339   118.3040   132.5646      .4273      .7361
10361.5000     2.3367   117.2722   138.2698      .4513      .7314
10362.0000     2.3369   116.9662   137.6246      .4461      .7301
10362.5000     2.3351   118.3984   136.8274      .4257      .7353
10363.0000     2.3393   119.0820   126.3444      .3978      .7261
10363.5000     2.3557   119.3490   125.1959      .3942      .7119
10364.0000     2.3776   119.0137   126.0541      .4149      .6956
10364.5000     2.3771   120.2865   130.1856      .4384      .6973
10365.0000     2.3565   118.9323   131.8542      .4804      .6969
10365.5000     2.3378   120.0977   132.9524      .4525      .6943
10366.0000     2.3370   120.1302   133.2889      .4509      .6884
10366.5000     2.3423   119.6094   131.1740      .4203      .6837
10367.0000     2.3367   120.9635   128.5781      .4280      .6790
10367.5000     2.3356   120.8496   130.9749      .4216      .6735
10368.0000     2.3544   120.5827   134.1597      .4229      .6763
10368.5000     2.3812   120.5208   136.0660      .4240      .6901
10369.0000     2.3843   119.7852   136.7331      .4088      .6835
10369.5000     2.3603   119.1732   143.2538      .4078      .6786
10370.0000     2.3433   119.4466   141.7600      .4272      .6840
