~VERSION INFORMATION
VERS.                                                 2.0:   CWLS Log ASCII Standard-VERSION 2.0
WRAP.                                                  NO:   One line per depth step
~Well Information Block
STRT.F                                          7564.5000:   Top Depth
STOP.F                                         11357.0000:   Bottom Depth
STEP.F                                             .50000:   Depth Increment
NULL.                                            -999.250:   Null Value
FLD .                                             FREEMAN:   Field Name
WELL.                                     FREEMAN-004-ST1:   NAME
CTRY.                                                 NIG:   COUNTRY
COMP.                                                SPDC:   OPERATOR
SPUD.                                          1998/05/26:   SPUD DATE
UWBI.                                      40000000257502:   UWBI
~PARAMETER INFORMATION (log)
LNAM.                                                                   PUBLIC:   NAME
LTYP.                                                              INTERPRETED:   LOG TYPE
LSRV.                                                               EVALUATION:   SERVICE
LVSN.                                                                        1:   LOG VERSION
BHIS.                                                                       RC:   BRIEF HISTORY
FHIS.                                                          RAW-LAS/PUBLISH:   FULL HISTORY
CN  .        SHELL NIGERIA EXPLORATION AND PRODUCTION COMPANY LIMITED (SNEPCO):   OPERATOR
~Curve Information Block
#MNEM.UNIT                                                             API CODE    No Description
#=========                                                             ========    == ===========
DEPT.F     FT. MD                            00 001 00 00:     1  DEPTH
DEN.G/CC                                                 :     2  Bulk Density                  =rhoz_e
DT.US/F                                                  :     3  Sonic (Compressional)         =dtlf_e
GR.API                                                   :     4  Gamma Ray                     =ecgr_02
NEUT.FRAC                                                :     5  Neutron Porosity              =nphi_02
RES_DEP.OHMM                                             :     6  Resistivity Deep              =aho90_r
~ASCII
# ...
10065.5000     2.4279   103.1315   112.8159      .3465     1.4408
10066.0000     2.4291   104.3262   118.2246      .3592     1.3288
10066.5000     2.4256   105.7845   125.7371      .3586     1.2919
10067.0000     2.4200   105.8431   124.8684      .3570     1.3167
10067.5000     2.4130   105.7585   126.8676      .3932     1.3392
10068.0000     2.4047   103.9355   129.4611      .4075     1.3146
10068.5000     2.3963   102.3307   130.4758      .4223     1.2956
10069.0000     2.3971   102.0345   128.6400      .3977     1.3375
10069.5000     2.4082    99.4466   118.4463      .3888     1.3905
10070.0000     2.4370    97.9460   119.9458      .3850     1.3892
10070.5000     2.4812    95.5599   116.4866      .3532     1.3838
10071.0000     2.5177    93.0762   115.6208      .3271     1.3999
10071.5000     2.5159    96.1784   116.8236      .3239     1.4525
10072.0000     2.4698    99.9414   119.5346      .3192     1.6216
10072.5000     2.4154   102.6563   124.8323      .3306     1.6562
10073.0000     2.3831   103.0599   122.9064      .3105     1.6085
10073.5000     2.3735   102.2559   125.1355      .2997     1.6063
10074.0000     2.3714   102.1224   126.3648      .3039     1.6235
10074.5000     2.3703   101.8587   127.2631      .3232     1.6200
10075.0000     2.3692   101.3835   128.6557      .3582     1.5742
10075.5000     2.3702   103.7305   128.4238      .3756     1.5360
10076.0000     2.3766   104.4987   129.2411      .3740     1.4776
10076.5000     2.3840   104.9251   126.3597      .3643     1.4050
10077.0000     2.3884   105.8040   121.4312      .3677     1.3504
10077.5000     2.3885   106.6406   123.4387      .3735     1.2891
10078.0000     2.3874   107.5814   123.1887      .3993     1.2476
10078.5000     2.3848   108.1315   124.9167      .4036     1.1764
10079.0000     2.3837   108.2031   125.3824      .4388     1.1366
10079.5000     2.3910   107.8809   125.2914      .4374     1.1395
10080.0000     2.4044   108.0925   120.4793      .4458     1.1683
10080.5000     2.4262   106.0254   114.0920      .4267     1.1747
10081.0000     2.4461   104.9544   115.6772      .4102     1.1902
10081.5000     2.4709   104.1341   118.5081      .3874     1.2366
10082.0000     2.4779   105.5892   121.2250      .3824     1.2494
10082.5000     2.4572   105.1465   114.4039      .3642     1.2605
10083.0000     2.4269   105.9635   117.9054      .3694     1.2501
10083.5000     2.4089   106.4095   119.0875      .3569     1.2171
10084.0000     2.4085   106.9727   128.9766      .4063     1.2062
10084.5000     2.4046   105.2669   123.6041      .3959     1.2695
10085.0000     2.3925   105.3027   121.4398      .4122     1.3324
10085.5000     2.3841   104.1406   116.6599      .3610     1.3260
10086.0000     2.3812   104.9284   120.1835      .3745     1.3579
10086.5000     2.3805   104.8047   120.7569      .3672     1.4134
10087.0000     2.3795   103.6816   118.0618      .3811     1.3816
10087.5000     2.3800   103.5840   117.9556      .3911     1.3368
10088.0000     2.3805   102.9395   113.9669      .3675     1.3279
10088.5000     2.3842   102.1940   118.2994      .3838     1.3640
10089.0000     2.3975   103.0045   120.7734      .3639     1.4071
10089.5000     2.4129   102.8223   122.1327      .3675     1.4282
10090.0000     2.4171   104.5605   117.1399      .3620     1.4011
10090.5000     2.4056   105.5631   115.1106      .3776     1.3746
10091.0000     2.3901   105.9408   121.3630      .4090     1.4117
10091.5000     2.3827   107.4284   122.9146      .3908     1.3853
10092.0000     2.3824   106.5430   120.4580      .3685     1.3307
10092.5000     2.3868   105.3939   117.2402      .3423     1.3336
10093.0000     2.3901   105.7943   117.6018      .3713     1.3240
10093.5000     2.3923   105.0391   122.6545      .3802     1.2989
10094.0000     2.3962   103.3919   121.0084      .3849     1.3098
10094.5000     2.4024   100.9375   120.0375      .3620     1.3454
10095.0000     2.4056   100.0065   116.6223      .3623     1.3726
10095.5000     2.4050   101.1849   117.3409      .3668     1.4021
10096.0000     2.4054   101.1784   122.3788      .3555     1.4503
10096.5000     2.4085   102.3177   128.0681      .3382     1.4868
10097.0000     2.4071   105.4232   127.4308      .3468     1.4282
10097.5000     2.4024   107.1517   120.3290      .3826     1.4125
10098.0000     2.4011   107.5684   119.9311      .3902     1.4320
10098.5000     2.4069   105.4036   125.6589      .3542     1.3965
10099.0000     2.4098   102.6595   132.7209      .3352     1.4021
10099.5000     2.4014   102.8581   131.2437      .3579     1.4324
10100.0000     2.3892   101.6504   129.6279      .3685     1.4493
10100.5000     2.3830   103.1185   129.0117      .3540     1.4356
10101.0000     2.3868   103.7077   126.1037      .3507     1.4317
10101.5000     2.3923   103.1087   125.2251      .3507     1.4247
10102.0000     2.3951   102.2982   122.0749      .3544     1.4094
10102.5000     2.3931   100.8626   119.4696      .3522     1.4323
10103.0000     2.3843    98.3692   114.2435      .3697     1.4300
10103.5000     2.3736    97.5716   114.2813      .3805     1.4411
10104.0000     2.3597    99.9642   117.9317      .3780     1.4465
10104.5000     2.3521   101.6634   120.9681      .3941     1.4609
10105.0000     2.3541   101.5365   118.7217      .3929     1.4620
10105.5000     2.3661   100.7650   114.7844      .3793     1.4717
10106.0000     2.3861   100.0944   117.4414      .3472     1.4982
10106.5000     2.4040    97.5846   120.2457      .3481     1.5176
10107.0000     2.4136    97.7539   123.5410      .3714     1.5181
10107.5000     2.4130    98.6426   122.6767      .3888     1.5151
10108.0000     2.4077    98.6849   122.9007      .3857     1.4890
10108.5000     2.4074    99.3490   119.4892      .3537     1.4694
10109.0000     2.4081   101.2402   119.0833      .3384     1.4473
10109.5000     2.4095   102.0963   115.6772      .3352     1.4109
10110.0000     2.4110   104.5247   115.2304      .3623     1.3534
10110.5000     2.4123   104.8600   110.4566      .3661     1.2835
10111.0000     2.4129   103.3398   114.4905      .3531     1.2369
10111.5000     2.4116   102.3210   119.5667      .3518     1.2763
10112.0000     2.4082   101.1849   125.1612      .3488     1.3622
10112.5000     2.4036   100.0423   125.4138      .3529     1.4733
10113.0000     2.4010   100.8789   122.2336      .3431     1.5545
10113.5000     2.4025   101.5690   121.8192      .3390     1.5139
10114.0000     2.4066   102.3763   118.7680      .3573     1.3991
10114.5000     2.4106   102.6823   118.7405      .3614     1.2825
10115.0000     2.4115   103.6979   112.2533      .3633     1.1923
10115.5000     2.4118   105.8887   113.0325      .3518     1.1434
10116.0000     2.4116   107.0768   118.0546      .3489     1.1081
10116.5000     2.4113   106.6276   127.4945      .3691     1.1187
10117.0000     2.4074   105.3483   128.1268      .3729     1.1680
10117.5000     2.4000   103.7370   120.6687      .3754     1.2267
10118.0000     2.3914   106.8229   119.1868      .3952     1.2372
10118.5000     2.3827   109.5508   122.6329      .4271     1.1834
10119.0000     2.3746   111.0872   129.0438      .4612     1.1222
10119.5000     2.3726   113.9779   130.4265      .4563     1.0543
10120.0000     2.3755   113.4570   128.9060      .4376      .9791
10120.5000     2.3789   114.3066   129.7275      .4155      .9109
10121.0000     2.3847   114.7657   128.6767      .4141      .8783
10121.5000     2.3875   114.4792   128.3795      .4447      .9034
10122.0000     2.3833   114.0462   123.1445      .4511      .9698
10122.5000     2.3758   114.4108   124.4465      .4527     1.0478
10123.0000     2.3793   113.4342   118.2086      .4142     1.0965
10123.5000     2.4004   113.3821   117.6053      .4100     1.0968
10124.0000     2.4094   114.3327   112.9714      .4130     1.0689
10124.5000     2.3968   114.6419   114.4513      .4375     1.0051
10125.0000     2.3741   114.2806   114.3783      .4361     1.0122
10125.5000     2.3594   115.5404   114.5411      .4116     1.0186
10126.0000     2.3508   114.8014   116.6692      .4057     1.0078
