~VERSION INFORMATION
VERS.                                                 2.0:   CWLS Log ASCII Standard-VERSION 2.0
WRAP.                                                  NO:   One line per depth step
~Well Information Block
STRT.F                                          5633.5000:   Top Depth
STOP.F                                          9740.0000:   Bottom Depth
STEP.F                                             .50000:   Depth Increment
NULL.                                            -999.250:   Null Value
FLD .                                             FREEMAN:   Field Name
WELL.                                     FREEMAN-003-ST1:   NAME
COMP.                                                SPDC:   OPERATOR
UWBI.                                      40000000257402:   UWBI
~PARAMETER INFORMATION (log)
LNAM.                                              PUBLIC:   NAME
LTYP.                                         INTERPRETED:   LOG TYPE
LSRV.                                          EVALUATION:   SERVICE
LVSN.                                                   1:   LOG VERSION
BHIS.                                                  RC:   BRIEF HISTORY
FHIS.                                     RAW-LAS/PUBLISH:   FULL HISTORY
CN  .                                              SNEPCO:   OPERATOR
DATE.                         Wednesday, March 11 2009 07:   RUN DATE
~Curve Information Block
#MNEM.UNIT                                        API CODE    No Description
#=========                                        ========    == ===========
DEPT.F     FT. MD                            00 001 00 00:     1  DEPTH
DEN.G/C3                                                 :     2  Bulk Density                  =rhoz_jr
DT.US/F                                                  :     3  Delta-T Compressional
GR.API                                                   :     4  Gamma Ray                     =ecgr_j
NEU.FRAC                                                 :     5  Neutron Porosity in Limestone =tnph_j
RES_DEP.OHMM                                             :     6  Resistivity Deep              =resd_jr
~ASCII
# ...
 9415.5000     2.3076   130.8000    87.0019      .4825      .8765
 9416.0000     2.3035   131.0000    84.3752      .5203      .8851
 9416.5000     2.3019   131.1000    88.3809      .5131      .8847
 9417.0000     2.3035   129.6000    93.5833      .4873      .8568
 9417.5000     2.3052   130.2000    96.1892      .4945      .8725
 9418.0000     2.3061   130.5000    96.9251      .4898      .9165
 9418.5000     2.3077   128.0000    93.3791      .4758      .9012
 9419.0000     2.3097   129.4000    91.5836      .4672      .8859
 9419.5000     2.3092   128.3000    96.1349      .4734      .8945
 9420.0000     2.3050   128.4000    95.8981      .4925      .8953
 9420.5000     2.2999   128.2000   101.0820      .4892      .8879
 9421.0000     2.2984   127.0000    98.4452      .4929      .8822
 9421.5000     2.3029   127.2000    97.6278      .4703      .8777
 9422.0000     2.3104   128.2000    95.2901      .4749      .8957
 9422.5000     2.3164   127.3000    98.0340      .5254      .9249
 9423.0000     2.3199   127.1000    99.0326      .6214      .9390
 9423.5000     2.3218   127.0000    95.9815      .5488      .9516
 9424.0000     2.3223   127.3000    93.1963      .5575      .9653
 9424.5000     2.3214   127.6000    93.4548      .6074      .9699
 9425.0000     2.3200   128.4000    93.5732      .6122      .9691
 9425.5000     2.3188   128.0000    93.5957      .6282      .9758
 9426.0000     2.3183   128.3000    96.7737      .5693      .9810
 9426.5000     2.3201   127.0000    99.6395      .5283      .9696
 9427.0000     2.3237   127.8000    99.2984      .4908      .9741
 9427.5000     2.3260   127.9000    96.1910      .4579      .9809
 9428.0000     2.3247   127.0000    97.7082      .5331      .9602
 9428.5000     2.3214   128.3000   101.1900      .5679      .9366
 9429.0000     2.3195   128.4000   102.8450      .5817      .9202
 9429.5000     2.3203   128.2000    97.9042      .5155      .9190
 9430.0000     2.3228   128.1000    95.9339      .4631      .9249
 9430.5000     2.3253   127.3000    93.4598      .5090      .9293
 9431.0000     2.3265   128.3000    92.2376      .5412      .9311
 9431.5000     2.3263   128.3000    90.8714      .5922      .9088
 9432.0000     2.3255   127.8000    91.1016      .5635      .8858
 9432.5000     2.3236   128.5000    99.8256      .5144      .8841
 9433.0000     2.3190   128.7000   104.7290      .4833      .8823
 9433.5000     2.3132   128.8000   102.5580      .4771      .8742
 9434.0000     2.3098   128.5000    92.3110      .5196      .8574
 9434.5000     2.3082   128.3000    89.5162      .4729      .8395
 9435.0000     2.3070   128.8000    91.7680      .4537      .8246
 9435.5000     2.3089   127.8000    95.3756      .4208      .8193
 9436.0000     2.3174   128.1000    96.2825      .4510      .8165
 9436.5000     2.3281   129.7000    94.6317      .4563      .8049
 9437.0000     2.3325   128.2000    93.3961      .4999      .7903
 9437.5000     2.3286   127.7000    93.7158      .5186      .7939
 9438.0000     2.3216   128.3000   100.1900      .5045      .8082
 9438.5000     2.3159   129.2000   103.2510      .4885      .8196
 9439.0000     2.3131   128.3000   102.6710      .5416      .8280
 9439.5000     2.3119   128.7000    98.5182      .5367      .8313
 9440.0000     2.3111   127.7000    95.9507      .5235      .8226
 9440.5000     2.3125   127.8000   101.9810      .4828      .8080
 9441.0000     2.3176   127.2000   105.0740      .5735      .7966
 9441.5000     2.3264   126.8000   102.6600      .5812      .7927
 9442.0000     2.3364   127.8000   100.8030      .5284      .7870
 9442.5000     2.3434   127.5000   100.0280      .4845      .7571
 9443.0000     2.3443   125.8000    99.1058      .4888      .7235
 9443.5000     2.3405   125.3000    96.1071      .4933      .7040
 9444.0000     2.3372   125.6000    99.2912      .4553      .7008
 9444.5000     2.3388   125.5000    98.4768      .4284      .7156
 9445.0000     2.3433   122.8000    97.0452      .4160      .7373
 9445.5000     2.3472   119.8000    95.0722      .4271      .7587
 9446.0000     2.3501   115.3000    94.1756      .4320      .7670
 9446.5000     2.3521   120.5000    97.3676      .4459      .7799
 9447.0000     2.3547   115.7000    98.0783      .4177      .8715
 9447.5000     2.3659   112.9000    97.1356      .4340     1.0304
 9448.0000     2.3970   114.1000    88.6274      .3964      .9065
 9448.5000     2.4415   115.5000    84.9971      .4982      .8618
 9449.0000     2.4645   117.0000    83.6576      .4814      .9283
 9449.5000     2.4384   119.2000    89.8157      .5381      .9435
 9450.0000     2.3780   124.7000    94.8861      .4736      .7552
 9450.5000     2.3247   127.6000    99.1422      .4535      .6306
 9451.0000     2.3013   129.3000   102.0690      .4439      .6153
 9451.5000     2.2999   129.2000   102.1890      .4613      .6217
 9452.0000     2.3051   128.4000   101.2490      .4786      .6168
 9452.5000     2.3084   130.0000   100.2470      .5112      .6101
 9453.0000     2.3070   132.7000    97.8300      .5172      .6372
 9453.5000     2.3024   132.6000    96.6447      .5217      .6910
 9454.0000     2.2988   132.5000    96.9028      .5052      .7081
 9454.5000     2.2982   132.2000    97.2837      .4862      .7280
 9455.0000     2.2975   130.3000    98.1874      .4600      .7606
 9455.5000     2.2944   129.5000    99.8984      .4410      .7127
 9456.0000     2.2908   133.8000    99.0087      .4467      .6546
 9456.5000     2.2900   131.6000    95.9222      .4711      .5910
 9457.0000     2.2920   132.9000    95.5758      .4986      .5064
 9457.5000     2.2961   130.2000    95.8366      .5328      .5820
 9458.0000     2.3016   132.1000    95.7279      .4917      .7896
 9458.5000     2.3099   129.2000    88.3255      .4961      .8578
 9459.0000     2.3245   125.9000    87.2921      .4600      .8413
 9459.5000     2.3490   127.5000    89.7141      .4492      .8520
 9460.0000     2.3784   125.0000    92.1904      .4528      .8705
 9460.5000     2.3978   122.0000    89.4524      .4424      .8927
 9461.0000     2.3967   121.1000    87.9837      .4674      .9175
 9461.5000     2.3841   120.6000    85.7869      .4913      .9387
 9462.0000     2.3802   120.9000    83.0748      .5274      .9441
 9462.5000     2.3905   123.8000    80.1987      .4988      .9551
 9463.0000     2.3962   124.5000    85.5823      .4455      .9408
 9463.5000     2.3784   126.7000    89.8675      .4090      .8977
 9464.0000     2.3458   126.0000    93.1909      .4160      .9088
 9464.5000     2.3251   121.6000    96.3194      .4344      .9766
 9465.0000     2.3272   117.7000    93.6330      .4116     1.0228
 9465.5000     2.3398   121.6000    90.8980      .4042     1.0710
 9466.0000     2.3485   118.8000    85.8914      .4181     1.0921
 9466.5000     2.3516   114.5000    84.5660      .4119     1.1152
 9467.0000     2.3545   114.0000    86.5225      .4179     1.1540
 9467.5000     2.3586   112.9000    87.6711      .4103     1.1953
 9468.0000     2.3599   115.0000    89.6387      .3647     1.1952
 9468.5000     2.3555   116.8000    90.5203      .4085     1.1684
 9469.0000     2.3473   120.1000    90.6653      .4171     1.1295
 9469.5000     2.3394   121.8000    92.1790      .5553     1.0766
 9470.0000     2.3336   121.2000    95.7740      .5407     1.0444
 9470.5000     2.3302   124.3000   101.5820      .5258     1.0273
 9471.0000     2.3301   121.9000   104.9230      .4866      .9980
 9471.5000     2.3331   115.3000   104.8160      .4908      .9531
 9472.0000     2.3370   116.5000   104.7140      .4533      .9451
 9472.5000     2.3401   114.9000   103.0700      .4309     1.0284
 9473.0000     2.3434   113.9000   100.0850      .3870     1.1730
 9473.5000     2.3448   115.2000    97.5588      .3975     1.3728
 9474.0000     2.3350   115.6000    96.6876      .3849     1.6611
 9474.5000     2.3072   117.9000    93.0136      .4270     1.6938
 9475.0000     2.2740   120.1000    90.9819      .4220     1.3443
 9475.5000     2.2609   121.0000    86.5162      .3856     1.0810
 9476.0000     2.2777   122.2000    91.5942      .4238      .9709
