~VERSION INFORMATION
VERS.                                                 2.0:   CWLS Log ASCII Standard-VERSION 2.0
WRAP.                                                  NO:   One line per depth step
~Well Information Block
STRT.F                                          7679.0000:   Top Depth
STOP.F                                          8606.0000:   Bottom Depth
STEP.F                                             .50000:   Depth Increment
NULL.                                            -999.250:   Null Value
FLD .                                             FREEMAN:   Field Name
WELL.                                         FREEMAN-004:   NAME
CTRY.                                                 NIG:   COUNTRY
COMP.                                                SPDC:   OPERATOR
SPUD.                                          1998/05/26:   SPUD DATE
UWBI.                                      40000000257501:   UWBI
~PARAMETER INFORMATION (log)
LNAM.                                              PUBLIC:   NAME
LTYP.                                         INTERPRETED:   LOG TYPE
LSRV.                                          EVALUATION:   SERVICE
LVSN.                                                   1:   LOG VERSION
BHIS.                                                  RC:   BRIEF HISTORY
FHIS.                                     RAW-LAS/PUBLISH:   FULL HISTORY
CN  .                                              SNEPCO:   OPERATOR
~Curve Information Block
#MNEM.UNIT                                        API CODE    No Description
#=========                                        ========    == ===========
DEPT.F     FT. MD                            00 001 00 00:     1  DEPTH
DEN.G/CC                                                 :     2  Bulk Density                  =rhoz_01r
GR.API                                                   :     3  Gamma Ray                     =gr_01
NEUT.FRAC                                                :     4  Neutron Porosity              =tnph_01
RES_DEP.OHMM                                             :     5  Resistivity Deep              =aho90_1r
~ASCII
# ...
 8263.0000     2.3135    71.8085      .4756     1.0899
 8263.5000     2.3147    76.4374      .4972     1.0782
 8264.0000     2.3145    76.2933      .4531     1.1203
 8264.5000     2.3113    76.7794      .3705     1.1919
 8265.0000     2.3014    72.7157      .3738     1.3252
 8265.5000     2.2912    70.9898      .3913     1.3339
 8266.0000     2.2891    68.4655      .4167     1.1863
 8266.5000     2.2948    70.5415      .4481     1.0640
 8267.0000     2.3005    73.1023      .4671     1.0141
 8267.5000     2.3007    75.2580      .4943      .9920
 8268.0000     2.2985    72.0718      .5431     1.0048
 8268.5000     2.2944    73.4870      .5656     1.0351
 8269.0000     2.2908    71.5054      .5947     1.0627
 8269.5000     2.2905    74.1135      .5073     1.0775
 8270.0000     2.2947    71.8474      .4450     1.0833
 8270.5000     2.2997    74.7761      .4456     1.1036
 8271.0000     2.3032    75.2670      .4616     1.1492
 8271.5000     2.3011    77.7657      .4237     1.1622
 8272.0000     2.2943    79.3841      .3674     1.1046
 8272.5000     2.2877    81.7821      .3618     1.0490
 8273.0000     2.2931    82.0332      .3849     1.0379
 8273.5000     2.2979    78.9678      .4263     1.0577
 8274.0000     2.2920    74.6573      .4692     1.0653
 8274.5000     2.2707    75.8690      .5759     1.0604
 8275.0000     2.2523    74.3935      .6225     1.0587
 8275.5000     2.2416    76.4862      .6908     1.0673
 8276.0000     2.2408    76.7363      .5499     1.0652
 8276.5000     2.2431    79.8666      .5323     1.0551
 8277.0000     2.2465    81.1268      .5104     1.0507
 8277.5000     2.2468    81.2801      .5301     1.0347
 8278.0000     2.2465    80.0203      .5144     1.0899
 8278.5000     2.2548    74.8331      .4755     1.1623
 8279.0000     2.2755    74.5302      .4312     1.2560
 8279.5000     2.2999    75.5797      .4238     1.3189
 8280.0000     2.3131    75.3851      .4349     1.2954
 8280.5000     2.3100    73.1458      .4739     1.1217
 8281.0000     2.3080    73.3731      .4738      .9591
 8281.5000     2.3059    75.0401      .4578      .9919
 8282.0000     2.3006    77.6178      .4503     1.0801
 8282.5000     2.2917    76.3591      .4227     1.0953
 8283.0000     2.2869    78.2227      .4074     1.1064
 8283.5000     2.2918    77.7339      .3660     1.1622
 8284.0000     2.2973    79.6896      .3653     1.2955
 8284.5000     2.2966    76.3728      .3607     1.5729
 8285.0000     2.2891    80.0133      .3580     1.7381
 8285.5000     2.2802    77.3252      .3762     1.7261
 8286.0000     2.2780    77.9370      .4006     1.8100
 8286.5000     2.2773    68.5245      .4082     1.9032
 8287.0000     2.2726    67.4906      .3858     1.9387
 8287.5000     2.2675    70.4577      .3843     1.9057
 8288.0000     2.2705    75.4407      .3906     1.8399
 8288.5000     2.2806    76.5369      .3941     1.7503
 8289.0000     2.2950    72.7335      .3830     1.7343
 8289.5000     2.3093    71.7090      .3624     1.7360
 8290.0000     2.3234    71.8844      .3558     1.7198
 8290.5000     2.3308    77.1329      .3824     1.7087
 8291.0000     2.3295    79.3223      .3523     1.6840
 8291.5000     2.3227    81.8000      .3284     1.7074
 8292.0000     2.3177    80.9256      .3286     1.5932
 8292.5000     2.3193    83.5954      .3647     1.3361
 8293.0000     2.3268    81.9773      .4094     1.1930
 8293.5000     2.3320    86.2524      .4154     1.1276
 8294.0000     2.3276    89.0579      .4141     1.0994
 8294.5000     2.3148    90.3635      .4056     1.1261
 8295.0000     2.3032    88.1226      .4152     1.1578
 8295.5000     2.2992    84.8877      .4360     1.1418
 8296.0000     2.3012    84.3079      .4367     1.0993
 8296.5000     2.3071    84.6813      .4275     1.0865
 8297.0000     2.3160    83.1239      .4375     1.0763
 8297.5000     2.3276    79.0653      .4307     1.0744
 8298.0000     2.3315    77.3376      .4279     1.0949
 8298.5000     2.3248    79.7077      .4375     1.1247
 8299.0000     2.3122    83.3953      .4399     1.1507
 8299.5000     2.3040    84.7777      .4247     1.1736
 8300.0000     2.3056    85.3699      .4178     1.1839
 8300.5000     2.3124    83.1789      .4053     1.1587
 8301.0000     2.3175    81.6004      .4038     1.1283
 8301.5000     2.3169    79.3487      .4033     1.1077
 8302.0000     2.3099    79.1406      .4112     1.0813
 8302.5000     2.3031    79.1683      .4279     1.0746
 8303.0000     2.2983    79.8206      .4216     1.0753
 8303.5000     2.3012    78.6952      .4554     1.0822
 8304.0000     2.3109    74.5138      .4342     1.1227
 8304.5000     2.3196    75.3830      .4367     1.1896
 8305.0000     2.3181    78.9237      .4123     1.2362
 8305.5000     2.3088    88.3224      .4098     1.2133
 8306.0000     2.2983    86.8777      .3917     1.2100
 8306.5000     2.2935    84.7270      .3976     1.2042
 8307.0000     2.2933    78.1399      .3933     1.1832
 8307.5000     2.2942    79.0598      .4206     1.1614
 8308.0000     2.2949    79.8253      .4135     1.1359
 8308.5000     2.2948    81.0640      .4296     1.1309
 8309.0000     2.2976    81.3281      .4362     1.1217
 8309.5000     2.3056    82.9604      .4174     1.1113
 8310.0000     2.3099    83.4551      .4050     1.0985
 8310.5000     2.2906    81.6755      .3873     1.0829
 8311.0000     2.2551    79.1868      .4157     1.0638
 8311.5000     2.2465    79.0880      .4462     1.0522
 8312.0000     2.2759    79.9724      .4995     1.0559
 8312.5000     2.3070    78.7500      .4947     1.0618
 8313.0000     2.3129    77.3081      .4838     1.0609
 8313.5000     2.3004    74.0496      .4726     1.0548
 8314.0000     2.2899    72.2587      .4480     1.0543
 8314.5000     2.2781    72.8091      .4324     1.0641
 8315.0000     2.2677    74.7331      .4215     1.0553
 8315.5000     2.2683    77.8640      .4286     1.0220
 8316.0000     2.2768    78.1451      .4113      .9919
 8316.5000     2.2883    77.7081      .4246      .9643
 8317.0000     2.2964    76.5846      .3948      .9691
 8317.5000     2.2928    75.0626      .4094      .9970
 8318.0000     2.2770    72.0994      .4059     1.0224
 8318.5000     2.2529    72.7221      .4351     1.0538
 8319.0000     2.2495    73.3925      .4770     1.0861
 8319.5000     2.2787    76.4702      .4876     1.1136
 8320.0000     2.3171    76.0987      .4761     1.1344
 8320.5000     2.3167    75.0511      .4255     1.1678
 8321.0000     2.2921    74.8747      .4170     1.2072
 8321.5000     2.2808    76.3221      .4467     1.2666
 8322.0000     2.2942    77.9713      .4333     1.2433
 8322.5000     2.2950    78.1659      .4216     1.1756
 8323.0000     2.2750    79.3423      .4113     1.1642
 8323.5000     2.2674    81.7750      .4086     1.2371
 8324.0000     2.2807    79.2483      .3869     1.2941
 8324.5000     2.2920    73.6774      .3853     1.3456
 8325.0000     2.2716    71.2457      .3896     1.4081
 8325.5000     2.2397    72.5724      .4098     1.4709
 8326.0000     2.2359    74.1680      .4312     1.5215
 8326.5000     2.2693    73.3035      .4439     1.5641
 8327.0000     2.3007    74.2682      .4336     1.6149
 8327.5000     2.3060    76.0972      .4350     1.6707
 8328.0000     2.2940    78.4347      .4314     1.7576
 8328.5000     2.2802    80.4134      .3874     1.9040
 8329.0000     2.2669    81.6106      .3506     2.1064
 8329.5000     2.2657    82.2930      .3551     2.2617
 8330.0000     2.2754    79.6633      .3594     2.2001
 8330.5000     2.2883    76.1900      .3697     2.1180
 8331.0000     2.2888    74.1072      .3731     2.0231
 8331.5000     2.2857    74.3855      .3781     1.9866
 8332.0000     2.2792    72.9499      .3749     1.9606
 8332.5000     2.2676    71.5942      .3917     1.9400
 8333.0000     2.2529    71.7125      .4223     2.0160
 8333.5000     2.2266    73.0355      .4416     2.2860
 8334.0000     2.2025    76.9287      .4625     2.6385
 8334.5000     2.1951    74.7727      .4963     2.4556
 8335.0000     2.2090    73.7081      .5166     2.3050
 8335.5000     2.2259    70.7487      .4658     2.3206
