~VERSION INFORMATION
VERS.                                                 2.0:   CWLS Log ASCII Standard-VERSION 2.0
WRAP.                                                  NO:   One line per depth step
~Well Information Block
STRT.F                                          7679.0000:   Top Depth
STOP.F                                          8606.0000:   Bottom Depth
STEP.F                                             .50000:   Depth Increment
NULL.                                            -999.250:   Null Value
FLD .                                             FREEMAN:   Field Name
WELL.                                         FREEMAN-004:   NAME
CTRY.                                                 NIG:   COUNTRY
COMP.                                                SPDC:   OPERATOR
SPUD.                                          1998/05/26:   SPUD DATE
UWBI.                                      40000000257501:   UWBI
~PARAMETER INFORMATION (log)
LNAM.                                              PUBLIC:   NAME
LTYP.                                         INTERPRETED:   LOG TYPE
LSRV.                                          EVALUATION:   SERVICE
LVSN.                                                   1:   LOG VERSION
BHIS.                                                  RC:   BRIEF HISTORY
FHIS.                                     RAW-LAS/PUBLISH:   FULL HISTORY
CN  .                                              SNEPCO:   OPERATOR
~Curve Information Block
#MNEM.UNIT                                        API CODE    No Description
#=========                                        ========    == ===========
DEPT.F     FT. MD                            00 001 00 00:     1  DEPTH
DEN.G/CC                                                 :     2  Bulk Density                  =rhoz_01r
GR.API                                                   :     3  Gamma Ray                     =gr_01
NEUT.FRAC                                                :     4  Neutron Porosity              =tnph_01
RES_DEP.OHMM                                             :     5  Resistivity Deep              =aho90_1r
~ASCII
 7679.0000  -999.2500    31.3416      .7883  -999.2500
 7679.5000     2.3415    31.3416      .7883      .1109
 7680.0000     2.3415    31.3416      .7883      .1109
 7680.5000     2.3415    31.3416      .7883      .1109
 7681.0000     2.3415    30.4303      .7883      .1109
 7681.5000     2.3415    29.8680      .7609      .1109
 7682.0000     2.3415    31.6419      .6646      .1109
 7682.5000     2.3415    34.4838      .5777      .1109
 7683.0000     2.3415    36.9078      .6368      .1109
 7683.5000     2.3415    33.4616      .6853      .1109
 7684.0000     2.3415    33.2949      .7013      .1109
 7684.5000     2.3415    32.9670      .6523      .1109
 7685.0000     2.3415    32.4038      .5924      .1109
 7685.5000     2.3415    32.4502      .5618      .1109
 7686.0000     2.3610    31.3008      .5826      .1109
 7686.5000     2.4325    34.7406      .6292      .1109
 7687.0000     2.4963    35.5491      .6450      .1109
 7687.5000     2.5298    39.2362      .6564      .1109
 7688.0000     2.5434    40.0035      .6591      .1109
 7688.5000     2.5565    40.4675      .6928      .1109
 7689.0000     2.5778    37.6930      .8054      .1109
 7689.5000     2.6129    37.2684      .7592      .1109
 7690.0000     2.6624    35.9733      .6369      .1109
 7690.5000     2.7122    35.0019      .5545      .1109
 7691.0000     2.7334    34.0701      .5534      .1109
 7691.5000     2.7068    36.0072      .6116      .1109
 7692.0000     2.6489    38.9343      .6562      .1109
 7692.5000     2.6184    39.5569      .7020      .1109
 7693.0000     2.6290    38.9162      .6937      .1109
 7693.5000     2.6574    37.4838      .7936      .1109
 7694.0000     2.6697    36.7420      .8574      .1109
 7694.5000     2.6719    36.9992      .7754      .1109
 7695.0000     2.6810    36.9571      .6812      .1109
 7695.5000     2.6891    36.0640      .6607      .1109
 7696.0000     2.6923    35.1298      .6458      .1109
 7696.5000     2.6832    35.7373      .6424      .1109
 7697.0000     2.6596    35.3253      .6320      .1109
 7697.5000     2.6033    34.6335      .5453      .1109
 7698.0000     2.4951    36.3451      .5687      .1109
 7698.5000     2.3260    39.8750      .6176      .1109
 7699.0000     2.2029    41.1846      .7345      .1109
 7699.5000     2.1642    40.5380      .6853      .1109
 7700.0000     2.1957    40.0482      .7080      .1109
 7700.5000     2.2085    41.2932      .6330      .1109
 7701.0000     2.1999    37.7376      .6171      .1109
 7701.5000     2.1862    35.7192      .5290      .1109
 7702.0000     2.1512    34.6067      .5198      .1109
 7702.5000     2.1042    34.0664      .5062      .1109
 7703.0000     2.0883    35.1341      .6598      .1109
 7703.5000     2.1298    36.5557      .7239      .1109
 7704.0000     2.1939    40.2559      .7364      .1109
 7704.5000     2.2364    41.0602      .5651      .1109
 7705.0000     2.2488    38.3729      .5383      .1109
 7705.5000     2.2389    38.2245      .5067      .1109
 7706.0000     2.2228    39.7268      .5945      .1109
 7706.5000     2.1874    41.8435      .7016      .1109
 7707.0000     2.1343    43.4042      .6703      .1109
 7707.5000     2.0729    44.2461      .6111      .1109
 7708.0000     2.0580    43.0253      .5723      .1109
 7708.5000     2.1420    39.8365      .5952      .1109
 7709.0000     2.2829    36.8872      .5498      .1109
 7709.5000     2.4603    35.3657      .6430      .1109
 7710.0000     2.6370    34.9008      .7676      .1109
 7710.5000     2.7769    35.4292     1.1128      .1109
 7711.0000     2.8332    36.8773      .8716      .1109
 7711.5000     2.8368    38.7341      .7638      .1109
 7712.0000     2.7091    41.0066      .7756      .1109
 7712.5000     2.5144    41.0919      .7847      .1109
 7713.0000     2.2862    40.6708      .7593      .1109
 7713.5000     2.1688    36.2901      .7558      .1109
 7714.0000     2.1336    34.6149      .6679      .1109
 7714.5000     2.1174    34.5396      .6479      .1109
 7715.0000     2.1245    37.4089      .5975      .1109
 7715.5000     2.1390    38.4525      .6237      .1109
 7716.0000     2.1453    40.8190      .6762      .1109
 7716.5000     2.1279    39.8520      .6166      .1109
 7717.0000     2.0878    42.1224      .5852      .1109
 7717.5000     2.0481    40.7172      .5624      .1109
 7718.0000     2.0109    42.6967      .5870      .1109
 7718.5000     1.9527    43.0586      .6705      .1109
 7719.0000     1.8598    42.2658      .5864      .1109
 7719.5000     1.7714    41.1170      .4918      .1109
 7720.0000     1.7302    40.4478      .4926      .1109
 7720.5000     1.7371    41.8003      .6237      .1109
 7721.0000     1.7611    40.6096      .8459      .1109
 7721.5000     1.7861    38.8887      .8190      .1109
 7722.0000     1.8141    38.0320      .6216      .1109
 7722.5000     1.8465    36.8489      .5892      .1109
 7723.0000     1.8809    36.8894      .4917      .1109
 7723.5000     1.9001    37.4884      .4927      .1109
 7724.0000     1.8985    36.2199      .5363      .1109
 7724.5000     1.8941    35.3209      .8160      .1109
 7725.0000     1.8955    33.8472      .9211      .1109
 7725.5000     1.9008    35.7780      .9469      .1109
 7726.0000     1.9027    36.4548      .9083      .1109
 7726.5000     1.9172    37.1232      .7913      .1109
 7727.0000     1.9453    35.2331      .6664      .1109
 7727.5000     1.9753    35.7152      .5990      .1109
 7728.0000     1.9917    37.3844      .5934      .1109
 7728.5000     2.0037    39.9265      .5923      .1109
 7729.0000     2.0160    39.1016      .6176      .1109
 7729.5000     2.0167    37.2382      .6490      .1109
 7730.0000     2.0207    34.5051      .7598      .1109
 7730.5000     2.0542    32.5025      .8064      .1109
 7731.0000     2.1356    32.0660      .7960      .1109
 7731.5000     2.2285    32.9345      .6986      .1109
 7732.0000     2.2294    33.7493      .6645      .1109
 7732.5000     2.1544    34.0584      .7216      .1109
 7733.0000     2.0321    35.4308      .8127      .1109
 7733.5000     1.9460    35.1310      .7897      .1109
 7734.0000     1.8945    38.7785      .7105      .1109
 7734.5000     1.8747    40.7627      .6994      .1109
 7735.0000     1.8890    43.9431      .7375      .1109
 7735.5000     1.9160    44.6886      .8264      .1109
 7736.0000     1.9451    43.5328      .7517      .1109
 7736.5000     1.9741    44.7687      .7442      .1109
 7737.0000     2.0067    43.9389      .7493      .1109
 7737.5000     2.0409    46.2396      .7468      .1109
 7738.0000     2.0675    46.3271      .7108      .1109
 7738.5000     2.0812    44.0126      .6132      .1109
 7739.0000     2.0820    40.5732      .6066      .1109
 7739.5000     2.0742    36.4287      .5667      .1109
 7740.0000     2.0607    34.9772      .6040      .1109
 7740.5000     2.0448    33.9155      .6993      .1109
 7741.0000     2.0344    33.5463      .6524      .1109
 7741.5000     2.0387    30.4364      .7541      .1109
 7742.0000     2.0567    30.3815      .8042      .1109
 7742.5000     2.0735    31.5931      .8530      .1109
 7743.0000     2.0753    32.1086      .6889      .1109
 7743.5000     2.0693    32.2941      .6251      .1109
 7744.0000     2.0645    31.1998      .5699      .1109
 7744.5000     2.0688    32.3701      .7099      .1109
 7745.0000     2.0696    33.2894      .6942      .1109
 7745.5000     2.0653    33.1832      .7277      .1109
 7746.0000     2.0515    32.2957      .7588      .1109
 7746.5000     2.0345    32.0222      .8718      .1109
 7747.0000     2.0127    33.1587      .9449      .1109
 7747.5000     1.9876    32.6205      .8578      .1109
 7748.0000     1.9762    32.1796      .8044      .1109
 7748.5000     1.9867    32.1849      .6954      .1109
 7749.0000     2.0171    34.0147      .6039      .1109
 7749.5000     2.0531    32.3710      .6072      .1109
 7750.0000     2.1180    30.8752      .6481      .1109
 7750.5000     2.2719    29.5682      .7258      .1109
 7751.0000     2.5818    29.5659      .7200      .1109
 7751.5000     2.8601    31.0644      .7508      .1109
