~VERSION INFORMATION
VERS.                                                 2.0:   CWLS Log ASCII Standard-VERSION 2.0
WRAP.                                                  NO:   One line per depth step
~Well Information Block
STRT.F                                          5633.5000:   Top Depth
STOP.F                                          9740.0000:   Bottom Depth
STEP.F                                             .50000:   Depth Increment
NULL.                                            -999.250:   Null Value
FLD .                                             FREEMAN:   Field Name
WELL.                                     FREEMAN-003-ST1:   NAME
COMP.                                                SPDC:   OPERATOR
UWBI.                                      40000000257402:   UWBI
~PARAMETER INFORMATION (log)
LNAM.                                              PUBLIC:   NAME
LTYP.                                         INTERPRETED:   LOG TYPE
LSRV.                                          EVALUATION:   SERVICE
LVSN.                                                   1:   LOG VERSION
BHIS.                                                  RC:   BRIEF HISTORY
FHIS.                                     RAW-LAS/PUBLISH:   FULL HISTORY
CN  .                                              SNEPCO:   OPERATOR
DATE.                         Wednesday, March 11 2009 07:   RUN DATE
~Curve Information Block
#MNEM.UNIT                                        API CODE    No Description
#=========                                        ========    == ===========
DEPT.F     FT. MD                            00 001 00 00:     1  DEPTH
DEN.G/C3                                                 :     2  Bulk Density                  =rhoz_jr
DT.US/F                                                  :     3  Delta-T Compressional
GR.API                                                   :     4  Gamma Ray                     =ecgr_j
NEU.FRAC                                                 :     5  Neutron Porosity in Limestone =tnph_j
RES_DEP.OHMM                                             :     6  Resistivity Deep              =resd_jr
~ASCII
# ...
 7829.5000     2.2644   149.4000    95.4325      .5635     1.3886
 7830.0000     2.2607   149.4000    92.0675      .4749     1.3203
 7830.5000     2.2582   151.8000    84.5960      .3922     1.4200
 7831.0000     2.2280   151.8000    73.9880      .3156     2.1098
 7831.5000     2.1446   144.3000    63.8315      .3101     3.3618
 7832.0000     2.0292   150.8000    52.4433      .3706     3.2913
 7832.5000     1.9591   155.9000    54.8728      .3982     2.1336
 7833.0000     1.9997   155.9000    63.1728      .4698     1.1133
 7833.5000     2.0975   146.9000    68.9003      .5197      .8735
 7834.0000     2.1470   146.1000    71.5637      .6797     1.1029
 7834.5000     2.1263   150.9000    69.9508      .6868     1.2046
 7835.0000     2.1014   148.8000    74.6917      .6341     1.1195
 7835.5000     2.1304   147.8000    84.6349      .4921     1.0332
 7836.0000     2.1771   147.8000    91.1919      .5045     1.0203
 7836.5000     2.2058   146.9000    98.0353      .5696     1.0347
 7837.0000     2.2180   146.9000    94.6430      .7753     1.0438
 7837.5000     2.2278   134.6000   100.4870      .9281     1.0778
 7838.0000     2.2366   134.6000    91.4153     1.3258     1.1257
 7838.5000     2.2314   135.3000    89.2357      .9007     1.1727
 7839.0000     2.2024   139.0000    77.0658      .7404     1.2230
 7839.5000     2.1527   138.7000    67.9098      .5306     1.1828
 7840.0000     2.1006   139.5000    61.9653      .4207     1.1868
 7840.5000     2.0754   137.5000    59.8972      .3595     1.2239
 7841.0000     2.0959   139.1000    67.2231      .4063     1.2004
 7841.5000     2.1489   134.4000    72.1089      .5724     1.1366
 7842.0000     2.2031   134.6000    78.2678      .6146     1.1035
 7842.5000     2.2377   134.6000    87.6133      .5391     1.1426
 7843.0000     2.2534   128.0000    87.6271      .4502     1.1849
 7843.5000     2.2608   128.0000    89.2124      .5040     1.1855
 7844.0000     2.2642   132.3000    87.5414      .5933     1.1876
 7844.5000     2.2638   129.7000    88.7664     1.0655     1.1910
 7845.0000     2.2591   130.9000    92.5157      .8120     1.2005
 7845.5000     2.2525   133.7000    93.9978      .5492     1.2048
 7846.0000     2.2471   133.4000    93.5465      .4550     1.1926
 7846.5000     2.2439   135.2000    91.6917      .4372     1.1602
 7847.0000     2.2431   133.5000    93.7137      .4628     1.1500
 7847.5000     2.2462   132.1000    98.8820      .4377     1.1832
 7848.0000     2.2536   130.9000   101.0720      .4527     1.2183
 7848.5000     2.2613   130.7000   102.1680      .4939     1.2254
 7849.0000     2.2656   130.4000   102.4150      .5752     1.2153
 7849.5000     2.2668   132.3000   101.9150      .5827     1.2130
 7850.0000     2.2672   130.3000   100.7260      .5458     1.2147
 7850.5000     2.2671   134.4000    95.8369      .5388     1.2194
 7851.0000     2.2652   129.0000    97.4015      .5086     1.1911
 7851.5000     2.2629   129.5000    94.9815      .4812     1.2082
 7852.0000     2.2627   130.3000    95.1810      .5279     1.2440
 7852.5000     2.2644   130.6000   101.0890      .5956     1.2606
 7853.0000     2.2654   131.9000   108.3640      .6717     1.2518
 7853.5000     2.2648   132.0000   112.6820      .6183     1.2173
 7854.0000     2.2641   132.6000   104.4910      .5016     1.1887
 7854.5000     2.2645   133.2000    91.4494      .5163     1.1560
 7855.0000     2.2640   134.0000    88.2378      .5162     1.1504
 7855.5000     2.2617   133.7000    88.0064      .5620     1.1780
 7856.0000     2.2601   131.0000    95.6243      .5552     1.2294
 7856.5000     2.2615   130.5000   101.6640      .5627     1.2679
 7857.0000     2.2641   129.9000   102.4350      .5034     1.2600
 7857.5000     2.2648   131.8000    98.9446      .5474     1.2397
 7858.0000     2.2607   132.9000    95.7947      .5348     1.2235
 7858.5000     2.2525   133.3000    94.7072      .5451     1.1993
 7859.0000     2.2464   133.1000    93.3061      .5968     1.1635
 7859.5000     2.2482   132.9000    91.4560      .7836     1.1365
 7860.0000     2.2555   133.1000    91.0977      .7191     1.1412
 7860.5000     2.2598   131.4000    92.7002      .7635     1.1724
 7861.0000     2.2586   131.9000    93.4892      .8590     1.1911
 7861.5000     2.2566   132.7000    97.9011      .7315     1.1794
 7862.0000     2.2559   133.9000    98.7841      .6024     1.1620
 7862.5000     2.2555   131.2000   102.1320      .4817     1.1986
 7863.0000     2.2562   130.9000   102.9900      .4206     1.2889
 7863.5000     2.2589   131.1000   101.4100      .4163     1.3095
 7864.0000     2.2616   130.1000    96.3760      .4243     1.2841
 7864.5000     2.2614   129.5000    97.2723      .4936     1.2669
 7865.0000     2.2596   130.5000    96.2344      .4786     1.2709
 7865.5000     2.2602   129.5000    99.6768      .6601     1.2816
 7866.0000     2.2627   130.8000    99.6221      .6883     1.2815
 7866.5000     2.2642   129.7000   100.4760      .6947     1.2826
 7867.0000     2.2645   130.3000    98.9744      .6402     1.2971
 7867.5000     2.2654   130.6000    93.1301      .7336     1.3070
 7868.0000     2.2671   129.7000    95.1102      .7909     1.2840
 7868.5000     2.2676   128.9000    96.5371      .6561     1.2509
 7869.0000     2.2660   118.6000    96.7579      .5637     1.2325
 7869.5000     2.2636   118.6000    96.6092      .5083     1.2483
 7870.0000     2.2615   121.8000    95.3646      .5304     1.2840
 7870.5000     2.2606   122.4000    94.4328      .5286     1.2841
 7871.0000     2.2616   125.4000    91.1229      .5566     1.2728
 7871.5000     2.2626   126.0000    92.5422      .4721     1.2824
 7872.0000     2.2619   128.5000    93.8034      .4355     1.2993
 7872.5000     2.2592   129.3000    96.4225      .3838     1.3309
 7873.0000     2.2568   129.3000    94.1812      .3981     1.3019
 7873.5000     2.2609   130.7000    92.4812      .4451     1.2316
 7874.0000     2.2698   130.6000    92.2782      .6211     1.1706
 7874.5000     2.2727   131.6000    96.2065      .6220     1.1658
 7875.0000     2.2661   131.6000    95.9200      .5889     1.1987
 7875.5000     2.2580   130.7000    92.4125      .5004     1.2083
 7876.0000     2.2583   127.3000    91.6394      .4816     1.2205
 7876.5000     2.2624   129.9000    94.4563      .4642     1.2405
 7877.0000     2.2608   125.7000    99.7298      .4634     1.2377
 7877.5000     2.2547   127.2000    99.4661      .4714     1.1937
 7878.0000     2.2517   128.3000    98.4707      .5113     1.2138
 7878.5000     2.2559   130.5000    93.4751      .4392     1.2462
 7879.0000     2.2619   137.2000    89.8651      .4258     1.1885
 7879.5000     2.2589   140.7000    88.8801      .4195     1.1018
 7880.0000     2.2424   138.9000    93.5959      .4960     1.0470
 7880.5000     2.2212   141.9000    91.6264      .5517     1.0049
 7881.0000     2.2125   135.7000    88.3934      .6227      .9554
 7881.5000     2.2169   140.7000    82.9727      .6006      .9180
 7882.0000     2.2154   143.1000    85.9412      .5467      .9308
 7882.5000     2.1997   139.2000    89.1957      .5769      .9841
 7883.0000     2.1849   141.0000    95.6168      .5651     1.0373
 7883.5000     2.1899   135.7000    96.0900      .6149     1.0626
 7884.0000     2.2126   138.3000   100.0490      .6405     1.0355
 7884.5000     2.2347   135.2000   100.3400      .6177      .9641
 7885.0000     2.2433   141.7000    99.4428      .6016      .8807
 7885.5000     2.2405   140.8000    91.6491      .5681      .8852
 7886.0000     2.2359   143.1000    86.9411      .6473      .9413
 7886.5000     2.2355   139.4000    88.7877      .5028      .9227
 7887.0000     2.2346   142.4000    92.9997      .4526      .9049
 7887.5000     2.2331   136.8000    91.9840      .4388      .9290
 7888.0000     2.2367   139.7000    87.4633      .5066      .9583
 7888.5000     2.2387   145.0000    80.5203      .5500      .9411
 7889.0000     2.2298   144.0000    82.7392      .6035      .8963
 7889.5000     2.2131   144.2000    88.3015      .5495      .8756
 7890.0000     2.1979   144.0000    89.1546      .5625      .8488
