~VERSION INFORMATION
VERS.                                                 2.0:   CWLS Log ASCII Standard-VERSION 2.0
WRAP.                                                  NO:   One line per depth step
~Well Information Block
STRT.F                                          7564.5000:   Top Depth
STOP.F                                         11357.0000:   Bottom Depth
STEP.F                                             .50000:   Depth Increment
NULL.                                            -999.250:   Null Value
FLD .                                             FREEMAN:   Field Name
WELL.                                     FREEMAN-004-ST1:   NAME
CTRY.                                                 NIG:   COUNTRY
COMP.                                                SPDC:   OPERATOR
SPUD.                                          1998/05/26:   SPUD DATE
UWBI.                                      40000000257502:   UWBI
~PARAMETER INFORMATION (log)
LNAM.                                                                   PUBLIC:   NAME
LTYP.                                                              INTERPRETED:   LOG TYPE
LSRV.                                                               EVALUATION:   SERVICE
LVSN.                                                                        1:   LOG VERSION
BHIS.                                                                       RC:   BRIEF HISTORY
FHIS.                                                          RAW-LAS/PUBLISH:   FULL HISTORY
CN  .        SHELL NIGERIA EXPLORATION AND PRODUCTION COMPANY LIMITED (SNEPCO):   OPERATOR
~Curve Information Block
#MNEM.UNIT                                                             API CODE    No Description
#=========                                                             ========    == ===========
DEPT.F     FT. MD                            00 001 00 00:     1  DEPTH
DEN.G/CC                                                 :     2  Bulk Density                  =rhoz_e
DT.US/F                                                  :     3  Sonic (Compressional)         =dtlf_e
GR.API                                                   :     4  Gamma Ray                     =ecgr_02
NEUT.FRAC                                                :     5  Neutron Porosity              =nphi_02
RES_DEP.OHMM                                             :     6  Resistivity Deep              =aho90_r
~ASCII
# ...
 7930.5000     2.2461   135.4134   113.1056      .4622      .8765
 7931.0000     2.2583   136.9173   110.3835      .4743      .8875
 7931.5000     2.2622   136.4648   106.6805      .4859      .8896
 7932.0000     2.2599   137.4968   105.1117      .4684      .8966
 7932.5000     2.2486   137.0866   101.4654      .4472      .8957
 7933.0000     2.2316   136.8848   101.9140      .4500      .8873
 7933.5000     2.2200   135.1920   100.9221      .4488      .8826
 7934.0000     2.2116   136.2630    98.7418      .4743      .8928
 7934.5000     2.2107   136.1230   101.0318      .4573      .8910
 7935.0000     2.2159   135.8952   100.8362      .4483      .9012
 7935.5000     2.2218   136.2826   101.7943      .4215      .9044
 7936.0000     2.2274   136.2728    98.3437      .4243      .9034
 7936.5000     2.2273   135.6445   101.1222      .4899      .9194
 7937.0000     2.2229   135.9994   102.9009      .5078      .9136
 7937.5000     2.2148   137.3633   108.4069      .5353      .8766
 7938.0000     2.2104   138.0404   107.0849      .4937      .8515
 7938.5000     2.2109   138.7630   101.0646      .5033      .8359
 7939.0000     2.2215   138.9063    99.5778      .4933      .8251
 7939.5000     2.2347   140.0260   100.0419      .4888      .8089
 7940.0000     2.2435   139.1439   107.3679      .4738      .8055
 7940.5000     2.2366   139.4401   101.2880      .4562      .8116
 7941.0000     2.2252   139.6842   103.0242      .4627      .8142
 7941.5000     2.2238   138.6947   102.0943      .4591      .8095
 7942.0000     2.2316   138.1868   110.0314      .4563      .8131
 7942.5000     2.2399   137.9427   109.7306      .4676      .8067
 7943.0000     2.2456   138.3073   111.0437      .4877      .7955
 7943.5000     2.2487   138.5580   109.7148      .4763      .7822
 7944.0000     2.2500   138.6653   110.8967      .4416      .7711
 7944.5000     2.2513   138.7630   111.6203      .4407      .7619
 7945.0000     2.2510   138.5189   110.7529      .4876      .7583
 7945.5000     2.2472   138.5840   109.3788      .5218      .7534
 7946.0000     2.2364   138.3984   106.3526      .5357      .7511
 7946.5000     2.2290   138.4571   108.1773      .5034      .7630
 7947.0000     2.2331   138.0990   107.1457      .4935      .7893
 7947.5000     2.2472   137.4674   112.2567      .4765      .8127
 7948.0000     2.2621   137.7832   111.3988      .4710      .8238
 7948.5000     2.2696   137.2038   112.9484      .4696      .8397
 7949.0000     2.2682   137.6204   109.0793      .4489      .8566
 7949.5000     2.2582   139.0886   106.7254      .4537      .8433
 7950.0000     2.2420   139.6061   101.7880      .4492      .8089
 7950.5000     2.2307   140.6218   104.9742      .4695      .7864
 7951.0000     2.2311   140.5404   102.2565      .4814      .7894
 7951.5000     2.2421   139.8893   104.6148      .5038      .7979
 7952.0000     2.2543   139.0853   102.9276      .4871      .8140
 7952.5000     2.2640   136.8327   102.6373      .4450      .8779
 7953.0000     2.2733   136.3411   102.8378      .4373      .9420
 7953.5000     2.2769   136.2305   103.7077      .4549      .9271
 7954.0000     2.2746   136.6797   108.8466      .4997      .9155
 7954.5000     2.2719   137.0378   110.7241      .4888      .9435
 7955.0000     2.2762   136.8717   108.5470      .4844      .9570
 7955.5000     2.2845   136.9596   105.2092      .4929      .9638
 7956.0000     2.2899   137.1322   106.4318      .4762      .9287
 7956.5000     2.2882   136.9238   104.2142      .4571      .8650
 7957.0000     2.2792   136.2435   108.2687      .4503      .8104
 7957.5000     2.2667   135.7357   110.1937      .4656      .7802
 7958.0000     2.2608   135.0391   115.9311      .4826      .7854
 7958.5000     2.2642   131.9922   114.0318      .4755      .7790
 7959.0000     2.2717   129.7591   113.8754      .4656      .7828
 7959.5000     2.2724   128.1022   106.5725      .4183      .9019
 7960.0000     2.2637   126.7969   104.8538      .3721     1.2067
 7960.5000     2.2513   126.9076   103.8722      .3408     1.4014
 7961.0000     2.2522   128.5254   109.4701      .3819     1.2989
 7961.5000     2.2681   130.3060   109.4701      .4352     1.1136
 7962.0000     2.2805   133.1511   111.4310      .4877      .9234
 7962.5000     2.2789   135.1172   109.2849      .4991      .8436
 7963.0000     2.2694   135.5306   113.2747      .4991      .8103
 7963.5000     2.2741   134.6810   107.7962      .4923      .8017
 7964.0000     2.2914   135.5111   107.1323      .4784      .7921
 7964.5000     2.3057   134.8665   105.7126      .4475      .7867
 7965.0000     2.3053   136.4518   107.2035      .4470      .7776
 7965.5000     2.2898   137.5293   111.5524      .4480      .7672
 7966.0000     2.2737   137.5684   110.5764      .4569      .7568
 7966.5000     2.2607   139.1016   113.6573      .4693      .7429
 7967.0000     2.2534   139.1797   113.5248      .4470      .7294
 7967.5000     2.2514   139.1797   113.5139      .4758      .7298
 7968.0000     2.2514   139.0462   117.4230      .4508      .7379
 7968.5000     2.2524   137.5814   116.8845      .4958      .7450
 7969.0000     2.2562   134.6973   118.9285      .4681      .7619
 7969.5000     2.2706   132.4544   115.2177      .4884      .8146
 7970.0000     2.2958   131.8978   105.2646      .4492      .8950
 7970.5000     2.3132   133.5286   103.5066      .4636      .9108
 7971.0000     2.3092   136.4420   100.1796      .4672      .8882
 7971.5000     2.2898   138.0697   112.6435      .4819      .8764
 7972.0000     2.2715   137.4805   116.8089      .4819      .8691
 7972.5000     2.2587   136.9075   122.6967      .4915      .8599
 7973.0000     2.2465   138.0208   122.6818      .4867      .8594
 7973.5000     2.2427   137.3372   118.3044      .4723      .8712
 7974.0000     2.2535   136.5593   112.2319      .4426      .8921
 7974.5000     2.2667   133.8151   110.4637      .4529      .9040
 7975.0000     2.2766   131.6341   110.2158      .4540      .9235
 7975.5000     2.2819   129.7070   113.3530      .4319      .9747
 7976.0000     2.2900   129.5345   107.9115      .4056     1.0209
 7976.5000     2.2879   130.8919   107.6903      .4005     1.0633
 7977.0000     2.2733   133.1315   103.4377      .4139     1.0372
 7977.5000     2.2546   137.5781   101.4756      .4504      .9433
 7978.0000     2.2431   139.0234   103.6502      .4568      .8830
 7978.5000     2.2398   140.4330   104.9202      .4669      .8531
 7979.0000     2.2352   140.4915   111.8926      .4605      .8285
 7979.5000     2.2315   139.6256   111.9051      .4897      .8069
 7980.0000     2.2327   139.0853   116.7965      .5285      .8024
 7980.5000     2.2411   138.6263   119.5188      .5403      .8157
 7981.0000     2.2455   139.1178   122.5720      .5211      .8254
 7981.5000     2.2376   137.6009   120.6824      .4759      .8220
 7982.0000     2.2237   136.4876   110.9975      .4559      .8282
 7982.5000     2.2217   138.0371   108.2470      .4426      .8433
 7983.0000     2.2357   136.3249   103.3577      .4422      .8545
 7983.5000     2.2519   137.9199   107.3074      .4516      .8511
 7984.0000     2.2549   138.0990   103.0400      .4705      .8488
 7984.5000     2.2491   137.0215   109.7719      .4506      .8512
 7985.0000     2.2489   137.1940   108.5811      .4522      .8628
 7985.5000     2.2576   136.4681   114.3537      .4440      .8778
 7986.0000     2.2627   136.5397   113.8579      .4665      .8845
 7986.5000     2.2506   137.3893   117.2091      .4540      .8748
 7987.0000     2.2271   138.3073   117.7275      .4477      .8763
 7987.5000     2.2068   137.7246   120.1492      .4354      .8950
 7988.0000     2.2023   136.2468   122.6400      .4543      .8961
 7988.5000     2.2149   135.4134   122.8091      .4687      .9263
 7989.0000     2.2375   133.3594   123.5587      .4719     1.0057
 7989.5000     2.2604   131.3965   131.0467      .4137     1.0940
 7990.0000     2.2710   129.0495   135.0614      .4053     1.1372
 7990.5000     2.2740   127.2168   138.8337      .4317     1.1415
 7991.0000     2.2768   126.1295   131.0758      .4731     1.1558
