~VERSION INFORMATION
VERS.                                                 2.0:   CWLS Log ASCII Standard-VERSION 2.0
WRAP.                                                  NO:   One line per depth step
~Well Information Block
STRT.F                                          7679.0000:   Top Depth
STOP.F                                          8606.0000:   Bottom Depth
STEP.F                                             .50000:   Depth Increment
NULL.                                            -999.250:   Null Value
FLD .                                             FREEMAN:   Field Name
WELL.                                         FREEMAN-004:   NAME
CTRY.                                                 NIG:   COUNTRY
COMP.                                                SPDC:   OPERATOR
SPUD.                                          1998/05/26:   SPUD DATE
UWBI.                                      40000000257501:   UWBI
~PARAMETER INFORMATION (log)
LNAM.                                              PUBLIC:   NAME
LTYP.                                         INTERPRETED:   LOG TYPE
LSRV.                                          EVALUATION:   SERVICE
LVSN.                                                   1:   LOG VERSION
BHIS.                                                  RC:   BRIEF HISTORY
FHIS.                                     RAW-LAS/PUBLISH:   FULL HISTORY
CN  .                                              SNEPCO:   OPERATOR
~Curve Information Block
#MNEM.UNIT                                        API CODE    No Description
#=========                                        ========    == ===========
DEPT.F     FT. MD                            00 001 00 00:     1  DEPTH
DEN.G/CC                                                 :     2  Bulk Density                  =rhoz_01r
GR.API                                                   :     3  Gamma Ray                     =gr_01
NEUT.FRAC                                                :     4  Neutron Porosity              =tnph_01
RES_DEP.OHMM                                             :     5  Resistivity Deep              =aho90_1r
~ASCII
# ...
 8336.0000     2.2313    71.6110      .4195     2.4247
 8336.5000     2.2306    72.1607      .4039     2.5382
 8337.0000     2.2327    72.4635      .3862     2.6144
 8337.5000     2.2333    69.7461      .3783     2.7716
 8338.0000     2.2287    71.6942      .3736     2.7940
 8338.5000     2.2193    73.5236      .3836     2.4726
 8339.0000     2.2110    77.6497      .3834     2.1888
 8339.5000     2.2038    73.8505      .3534     2.0895
 8340.0000     2.1765    69.4734      .3441     2.5497
 8340.5000     2.1376    64.3975      .3306     3.3643
 8341.0000     2.1021    59.6612      .3261     4.4783
 8341.5000     2.0767    55.3641      .3143     7.2028
 8342.0000     2.0430    50.3785      .3416    11.8499
 8342.5000     2.0012    48.6640      .3567    16.8688
 8343.0000     1.9747    47.3118      .3576    19.7236
 8343.5000     1.9696    47.2200      .3128    22.8133
 8344.0000     1.9735    48.4304      .3123    25.5628
 8344.5000     1.9775    50.3559      .3327    23.9984
 8345.0000     2.0094    52.9130      .3439    13.4690
 8345.5000     2.0792    56.6905      .3797     6.3642
 8346.0000     2.1666    61.4904      .4254     3.1824
 8346.5000     2.2272    65.1723      .4840     3.2088
 8347.0000     2.2213    65.3884      .4519     4.7626
 8347.5000     2.1621    60.4811      .4527     4.9912
 8348.0000     2.1051    61.2444      .4497     3.3479
 8348.5000     2.1116    63.4449      .4506     2.0680
 8349.0000     2.1689    67.2630      .4083     2.4310
 8349.5000     2.2066    68.2106      .3656     4.3472
 8350.0000     2.1798    64.3078      .3520     5.9131
 8350.5000     2.0982    62.2522      .3520     5.0329
 8351.0000     2.0282    63.2510      .3616     3.2596
 8351.5000     2.0260    68.0665      .3675     2.1714
 8352.0000     2.1010    69.8017      .3887     1.6954
 8352.5000     2.1920    70.9350      .3899     1.7408
 8353.0000     2.2381    72.6926      .3781     1.8743
 8353.5000     2.2354    73.0371      .3596     1.9365
 8354.0000     2.2274    74.2340      .3505     1.9241
 8354.5000     2.2368    72.3965      .3668     2.0648
 8355.0000     2.2497    72.1709      .3870     2.0801
 8355.5000     2.2530    70.4642      .4037     1.9970
 8356.0000     2.2526    69.0969      .4030     1.9535
 8356.5000     2.2468    66.7863      .4005     1.9219
 8357.0000     2.2283    66.4059      .4078     1.8033
 8357.5000     2.2094    67.1648      .3913     1.6958
 8358.0000     2.2186    67.1405      .4116     1.6332
 8358.5000     2.2534    66.2200      .3991     1.6402
 8359.0000     2.2859    64.7248      .4079     1.6132
 8359.5000     2.2965    65.0285      .3533     1.6414
 8360.0000     2.2859    64.0565      .3326     1.9404
 8360.5000     2.2634    65.3553      .3632     2.3854
 8361.0000     2.2316    63.2595      .4073     2.7522
 8361.5000     2.2004    60.5626      .4367     2.8994
 8362.0000     2.1890    58.8911      .3927     3.1367
 8362.5000     2.2101    59.8529      .4164     3.1630
 8363.0000     2.2426    62.6060      .3865     3.0639
 8363.5000     2.2522    60.8570      .3710     3.4683
 8364.0000     2.2315    62.8833      .3808     4.0429
 8364.5000     2.2014    62.9047      .3891     4.4616
 8365.0000     2.1893    63.0940      .4347     5.5688
 8365.5000     2.2076    61.0125      .4109     7.6206
 8366.0000     2.2163    60.4768      .4053     8.3664
 8366.5000     2.1669    60.6195      .3828     7.6980
 8367.0000     2.0708    62.2879      .3899     6.2683
 8367.5000     2.0042    65.2830      .4197     5.2419
 8368.0000     2.0107    67.0365      .4377     4.5531
 8368.5000     2.0585    64.6960      .4277     3.8745
 8369.0000     2.0969    65.0667      .3894     3.3845
 8369.5000     2.1056    65.4723      .3804     3.1297
 8370.0000     2.0914    64.7977      .3965     3.0905
 8370.5000     2.0729    62.9345      .4070     3.0788
 8371.0000     2.0723    61.3857      .4215     3.0340
 8371.5000     2.0800    63.8360      .4225     2.8804
 8372.0000     2.0832    66.2867      .4190     2.7082
 8372.5000     2.0710    65.3745      .4018     2.7213
 8373.0000     2.0520    61.2069      .3904     2.8657
 8373.5000     2.0427    59.2379      .3852     2.8648
 8374.0000     2.0468    59.3221      .3957     2.6392
 8374.5000     2.0591    62.6265      .3953     2.1834
 8375.0000     2.0717    65.1823      .4148     1.7531
 8375.5000     2.0818    68.5525      .3766     1.4730
 8376.0000     2.0923    65.8475      .3638     1.2912
 8376.5000     2.0993    61.7069      .3760     1.3219
 8377.0000     2.0932    54.5977      .3783     1.5229
 8377.5000     2.0662    52.3672      .3448     1.8037
 8378.0000     2.0251    51.3150      .3391     1.9554
 8378.5000     1.9979    53.1532      .4207     1.7435
 8379.0000     2.0055    59.6503      .5026     1.4194
 8379.5000     2.0364    63.9314      .5387     1.3131
 8380.0000     2.0640    66.1752      .4785     1.3780
 8380.5000     2.0751    64.2555      .4767     1.4421
 8381.0000     2.0724    62.0963      .4498     1.4672
 8381.5000     2.0628    59.9811      .4432     1.4996
 8382.0000     2.0473    58.0150      .4153     1.5520
 8382.5000     2.0316    59.8240      .3975     1.5873
 8383.0000     2.0240    63.9002      .3992     1.5930
 8383.5000     2.0253    67.3017      .4241     1.5826
 8384.0000     2.0297    64.4696      .4612     1.5934
 8384.5000     2.0306    60.4259      .5055     1.6346
 8385.0000     2.0296    58.3297      .4955     1.6813
 8385.5000     2.0269    59.0752      .4479     1.7671
 8386.0000     2.0202    57.6784      .4338     1.9903
 8386.5000     2.0126    56.4797      .4417     2.5815
 8387.0000     2.0083    56.7390      .4507     3.6232
 8387.5000     2.0058    56.4312      .4709     4.6980
 8388.0000     1.9993    55.2410      .4674     5.4975
 8388.5000     1.9929    52.5321      .4446     5.6859
 8389.0000     1.9900    52.0492      .4119     5.5279
 8389.5000     1.9885    53.0260      .4088     5.1215
 8390.0000     1.9881    54.5781      .4323     5.0503
 8390.5000     1.9901    53.9789      .4631     5.0538
 8391.0000     1.9972    55.0231      .4516     4.5745
 8391.5000     1.9985    53.6678      .4318     6.0661
 8392.0000     1.9909    53.7275      .4418    10.0614
 8392.5000     1.9713    50.0616      .4317    11.9186
 8393.0000     1.9492    47.9507      .4370    13.5489
 8393.5000     1.9363    44.5723      .4444    16.5119
 8394.0000     1.9369    43.1301      .4201    17.3885
 8394.5000     1.9471    39.1535      .3912    17.1143
 8395.0000     1.9568    39.9589      .3939    17.1726
 8395.5000     1.9637    37.4977      .4326    17.2439
 8396.0000     1.9693    36.7400      .4776    17.4907
 8396.5000     1.9709    34.6702      .4538    18.7863
 8397.0000     1.9697    35.0672      .4823    21.0879
 8397.5000     1.9688    35.5972      .4861    19.8145
 8398.0000     1.9700    38.5213      .5079    13.7338
 8398.5000     1.9678    43.0130      .5474     8.3703
 8399.0000     1.9617    46.0340      .5082     5.6135
 8399.5000     1.9558    47.3793      .4698     5.5563
 8400.0000     1.9562    45.8710      .4251     7.5153
 8400.5000     1.9602    42.4107      .4541     9.1456
 8401.0000     1.9662    40.3727      .4582     7.9195
 8401.5000     1.9728    40.2382      .5458     4.9638
 8402.0000     1.9792    41.7105      .5503     3.3618
 8402.5000     1.9827    44.0305      .5304     2.8303
 8403.0000     1.9822    49.4290      .4923     2.2409
 8403.5000     1.9789    58.0253      .5385     1.7481
 8404.0000     1.9756    62.2768      .5324     1.6971
 8404.5000     1.9752    62.2554      .5084     1.6846
 8405.0000     1.9773    58.3290      .4803     1.5618
 8405.5000     1.9779    53.9805      .4676     1.5340
 8406.0000     1.9748    51.2686      .4871     1.5622
 8406.5000     1.9712    50.2312      .5073     1.7501
 8407.0000     1.9702    52.4672      .4716     2.0424
 8407.5000     1.9736    57.6371      .4774     2.0045
 8408.0000     1.9779    57.5729      .5023     1.9987
 8408.5000     1.9810    54.1829      .5358     2.0883
