~VERSION INFORMATION
VERS.                                                 2.0:   CWLS Log ASCII Standard-VERSION 2.0
WRAP.                                                  NO:   One line per depth step
~Well Information Block
STRT.F                                          5633.5000:   Top Depth
STOP.F                                          9740.0000:   Bottom Depth
STEP.F                                             .50000:   Depth Increment
NULL.                                            -999.250:   Null Value
FLD .                                             FREEMAN:   Field Name
WELL.                                     FREEMAN-003-ST1:   NAME
COMP.                                                SPDC:   OPERATOR
UWBI.                                      40000000257402:   UWBI
~PARAMETER INFORMATION (log)
LNAM.                                              PUBLIC:   NAME
LTYP.                                         INTERPRETED:   LOG TYPE
LSRV.                                          EVALUATION:   SERVICE
LVSN.                                                   1:   LOG VERSION
BHIS.                                                  RC:   BRIEF HISTORY
FHIS.                                     RAW-LAS/PUBLISH:   FULL HISTORY
CN  .                                              SNEPCO:   OPERATOR
DATE.                         Wednesday, March 11 2009 07:   RUN DATE
~Curve Information Block
#MNEM.UNIT                                        API CODE    No Description
#=========                                        ========    == ===========
DEPT.F     FT. MD                            00 001 00 00:     1  DEPTH
DEN.G/C3                                                 :     2  Bulk Density                  =rhoz_jr
DT.US/F                                                  :     3  Delta-T Compressional
GR.API                                                   :     4  Gamma Ray                     =ecgr_j
NEU.FRAC                                                 :     5  Neutron Porosity in Limestone =tnph_j
RES_DEP.OHMM                                             :     6  Resistivity Deep              =resd_jr
~ASCII
# ...
 9659.5000     2.3599   114.5000   108.2730      .4607     1.0523
 9660.0000     2.3599   115.5000   111.0790      .4464     1.0332
 9660.5000     2.3648   117.3000   110.2710      .4340     1.0340
 9661.0000     2.3699   117.3000   104.5500      .4388     1.0315
 9661.5000     2.3690   116.7000   104.2590      .4448     1.0329
 9662.0000     2.3619   117.1000   106.9510      .4324     1.0652
 9662.5000     2.3553   117.2000   112.1580      .4904     1.1182
 9663.0000     2.3543   116.7000   114.9640      .4842     1.1700
 9663.5000     2.3580   116.3000   113.3090      .4855     1.2118
 9664.0000     2.3628   116.0000   111.4820      .4442     1.2201
 9664.5000     2.3669   115.1000   107.8720      .4293     1.2067
 9665.0000     2.3702   115.7000   107.9120      .4133     1.1738
 9665.5000     2.3720   115.5000   109.2130      .4016     1.1330
 9666.0000     2.3720   115.3000   109.2860      .3942     1.1291
 9666.5000     2.3704   116.9000   107.8170      .4175     1.1392
 9667.0000     2.3672   118.0000   104.6570      .4230     1.1331
 9667.5000     2.3627   118.5000   101.8020      .4383     1.1312
 9668.0000     2.3582   118.1000   102.5560      .4527     1.0992
 9668.5000     2.3543   117.1000   106.0130      .4319     1.1066
 9669.0000     2.3522   115.8000   108.0430      .4055     1.1089
 9669.5000     2.3533   113.1000   106.5110      .4179     1.1217
 9670.0000     2.3568   113.3000   105.2030      .4398     1.1798
 9670.5000     2.3595   112.0000   106.1540      .4723     1.2523
 9671.0000     2.3595   113.0000   110.0930      .4540     1.2802
 9671.5000     2.3584   114.1000   113.1560      .4482     1.2387
 9672.0000     2.3591   116.3000   119.0640      .4711     1.1885
 9672.5000     2.3618   117.2000   118.6980      .4793     1.1529
 9673.0000     2.3650   116.9000   118.0300      .4473     1.1602
 9673.5000     2.3670   116.4000   114.5920      .4160     1.1896
 9674.0000     2.3666   114.3000   111.3650      .3859     1.2866
 9674.5000     2.3656   113.8000   110.7580      .4158     1.2935
 9675.0000     2.3668   114.3000   111.4010      .4168     1.1973
 9675.5000     2.3696   114.4000   110.1800      .4610     1.1698
 9676.0000     2.3692   116.4000   106.1520      .5008     1.0995
 9676.5000     2.3627   117.7000   102.0050      .5186     1.0587
 9677.0000     2.3531   118.4000   105.8430      .4893     1.0891
 9677.5000     2.3456   118.6000   106.1190      .5146     1.0654
 9678.0000     2.3411   119.1000   108.6650      .5446     1.0325
 9678.5000     2.3378   119.8000   105.3770      .5628     1.0330
 9679.0000     2.3358   119.4000   104.9010      .5224     1.0508
 9679.5000     2.3382   120.1000   104.5610      .4961     1.0600
 9680.0000     2.3444   118.9000   104.2380      .4837     1.0619
 9680.5000     2.3477   119.5000   106.9840      .4946     1.0377
 9681.0000     2.3429   121.4000   105.6080      .4876     1.0334
 9681.5000     2.3337   122.2000   107.3590      .4630     1.0816
 9682.0000     2.3280   123.2000   106.5380      .5431     1.0721
 9682.5000     2.3279   120.9000   110.1970      .6021     1.0565
 9683.0000     2.3282   120.8000   109.4400      .7126     1.0440
 9683.5000     2.3267   120.1000   110.2530      .6521     1.0165
 9684.0000     2.3277   119.5000   110.5830      .6348     1.0121
 9684.5000     2.3336   119.7000   110.1600      .6196     1.0250
 9685.0000     2.3420   118.0000   107.2930      .5718     1.0189
 9685.5000     2.3491   116.7000   103.8730      .5665      .9739
 9686.0000     2.3511   117.2000   101.8010      .5318      .9531
 9686.5000     2.3424   118.6000   103.2740      .5394      .9727
 9687.0000     2.3236   119.3000   102.6030      .5521     1.0031
 9687.5000     2.3065   117.3000   104.8170      .4824     1.0167
 9688.0000     2.3048   117.3000    99.9593      .4530      .9906
 9688.5000     2.3173   114.8000   103.5460      .4456      .9612
 9689.0000     2.3313   115.8000   104.3540      .4627     1.0057
 9689.5000     2.3384   114.6000   104.3050      .4935     1.1283
 9690.0000     2.3391   116.4000   100.5580      .5074     1.1828
 9690.5000     2.3366   117.1000    97.7682      .4754     1.1039
 9691.0000     2.3335   118.0000    99.3540      .4633     1.0171
 9691.5000     2.3312   118.5000   100.9870      .4581     1.0098
 9692.0000     2.3306   118.3000   102.2660      .4968     1.0342
 9692.5000     2.3306  -999.2500   101.0790      .4722     1.0469
 9693.0000     2.3300  -999.2500   101.4680      .4848     1.0029
 9693.5000     2.3300  -999.2500   105.8280      .4874      .9663
 9694.0000     2.3323  -999.2500   110.4310      .5295      .9710
 9694.5000     2.3359  -999.2500   112.3710      .5289     1.0036
 9695.0000     2.3370  -999.2500   112.2130      .5414     1.0727
 9695.5000     2.3332  -999.2500   109.8600      .5342     1.0941
 9696.0000     2.3269  -999.2500   106.7100      .4907     1.0851
 9696.5000     2.3229  -999.2500   105.6940      .4868     1.1131
 9697.0000     2.3227  -999.2500   102.8650      .5293     1.1366
 9697.5000     2.3247  -999.2500   100.9500      .5070     1.1423
 9698.0000     2.3284  -999.2500    98.9756      .4475     1.1371
 9698.5000     2.3345  -999.2500   100.9250      .4434     1.1171
 9699.0000     2.3412  -999.2500   102.1550      .4221     1.0806
 9699.5000     2.3455  -999.2500   102.2730      .4420     1.0447
 9700.0000     2.3481  -999.2500   101.7820      .4300     1.0582
 9700.5000     2.3512  -999.2500   104.7250      .4375     1.1397
 9701.0000     2.3549  -999.2500   108.3010      .4396     1.1857
 9701.5000     2.3566  -999.2500   109.9600      .4409     1.1182
 9702.0000     2.3552  -999.2500   109.9580      .4757     1.0366
 9702.5000     2.3525  -999.2500   111.0870      .4942     1.0828
 9703.0000     2.3496  -999.2500   110.0310      .4885     1.1433
 9703.5000     2.3470  -999.2500   110.6550      .4489     1.1010
 9704.0000     2.3449  -999.2500   111.9930      .4519      .9838
 9704.5000     2.3442  -999.2500   113.5260      .4597      .9216
 9705.0000     2.3454  -999.2500   114.9550      .4613     1.0262
 9705.5000     2.3470  -999.2500   115.4890      .4465     1.0892
 9706.0000     2.3479  -999.2500   114.0070      .4728     1.0718
 9706.5000     2.3490  -999.2500   109.8150      .5157     1.0530
 9707.0000     2.3517  -999.2500   107.6430      .5471     1.0566
 9707.5000     2.3560  -999.2500   107.9270      .4412     1.0817
 9708.0000     2.3589  -999.2500   108.7230      .4069     1.1403
 9708.5000     2.3579  -999.2500   110.6860      .4195     1.2142
 9709.0000     2.3547  -999.2500   113.4110      .4303     1.1841
 9709.5000     2.3509  -999.2500  -999.2500      .4590     1.0299
 9710.0000     2.3467  -999.2500  -999.2500      .4812     1.0040
 9710.5000     2.3429  -999.2500  -999.2500      .5128     1.0025
 9711.0000     2.3435  -999.2500  -999.2500      .5427      .9586
 9711.5000     2.3498  -999.2500  -999.2500      .5395      .9626
 9712.0000     2.3306  -999.2500  -999.2500      .5191     1.0614
 9712.5000     2.2509  -999.2500  -999.2500      .5003     1.1821
 9713.0000     2.1510  -999.2500  -999.2500      .4933     1.1038
 9713.5000     2.1298  -999.2500  -999.2500      .4928     1.0010
 9714.0000     2.2186  -999.2500  -999.2500      .4982      .9775
 9714.5000     2.3254  -999.2500  -999.2500      .4975      .9765
 9715.0000     2.3687  -999.2500  -999.2500      .4939      .9690
 9715.5000     2.3571  -999.2500  -999.2500      .4976      .9713
 9716.0000     2.3464  -999.2500  -999.2500      .5235      .9919
 9716.5000     2.3499  -999.2500  -999.2500  -999.2500      .9754
 9717.0000     2.3567  -999.2500  -999.2500  -999.2500      .9861
 9717.5000     2.3598  -999.2500  -999.2500  -999.2500     1.0188
 9718.0000     2.3585  -999.2500  -999.2500  -999.2500     1.0445
 9718.5000     2.3586  -999.2500  -999.2500  -999.2500     1.0519
 9719.0000     2.3648  -999.2500  -999.2500  -999.2500     1.0685
 9719.5000     2.3732  -999.2500  -999.2500  -999.2500     1.0801
 9720.0000     2.3757  -999.2500  -999.2500  -999.2500     1.0888
