~VERSION INFORMATION
VERS.                                                 2.0:   CWLS Log ASCII Standard-VERSION 2.0
WRAP.                                                  NO:   One line per depth step
~Well Information Block
STRT.F                                          7564.5000:   Top Depth
STOP.F                                         11357.0000:   Bottom Depth
STEP.F                                             .50000:   Depth Increment
NULL.                                            -999.250:   Null Value
FLD .                                             FREEMAN:   Field Name
WELL.                                     FREEMAN-004-ST1:   NAME
CTRY.                                                 NIG:   COUNTRY
COMP.                                                SPDC:   OPERATOR
SPUD.                                          1998/05/26:   SPUD DATE
UWBI.                                      40000000257502:   UWBI
~PARAMETER INFORMATION (log)
LNAM.                                                                   PUBLIC:   NAME
LTYP.                                                              INTERPRETED:   LOG TYPE
LSRV.                                                               EVALUATION:   SERVICE
LVSN.                                                                        1:   LOG VERSION
BHIS.                                                                       RC:   BRIEF HISTORY
FHIS.                                                          RAW-LAS/PUBLISH:   FULL HISTORY
CN  .        SHELL NIGERIA EXPLORATION AND PRODUCTION COMPANY LIMITED (SNEPCO):   OPERATOR
~Curve Information Block
#MNEM.UNIT                                                             API CODE    No Description
#=========                                                             ========    == ===========
DEPT.F     FT. MD                            00 001 00 00:     1  DEPTH
DEN.G/CC                                                 :     2  Bulk Density                  =rhoz_e
DT.US/F                                                  :     3  Sonic (Compressional)         =dtlf_e
GR.API                                                   :     4  Gamma Ray                     =ecgr_02
NEUT.FRAC                                                :     5  Neutron Porosity              =nphi_02
RES_DEP.OHMM                                             :     6  Resistivity Deep              =aho90_r
~ASCII
# ...
11041.5000     2.4294   106.6048   121.6687      .4621      .9957
11042.0000     2.4127   107.2266   122.6820      .4714      .9402
11042.5000     2.4104   106.6830   119.2048      .4199      .8952
11043.0000     2.4202   106.1719   114.4689      .4444      .8888
11043.5000     2.4317   104.4304   109.1738      .4596      .9121
11044.0000     2.4412   104.9902   112.7093      .4598      .9193
11044.5000     2.4431   106.8489   115.1228      .4193      .9258
11045.0000     2.4470   106.9662   115.7401      .4152      .9699
11045.5000     2.4493   107.2168   118.6618      .4209     1.0119
11046.0000     2.4515   108.7272   119.7731      .4272     1.0016
11046.5000     2.4535   109.4531   123.4058      .4253      .9731
11047.0000     2.4532   109.4564   122.0753      .4201      .9675
11047.5000     2.4510   108.9616   119.7516      .4283      .9362
11048.0000     2.4471   109.5638   120.0059      .4401      .9156
11048.5000     2.4462   109.3815   119.3902      .4402      .9320
11049.0000     2.4471   108.6523   124.3039      .4568      .9464
11049.5000     2.4450   108.4408   125.9048      .4372      .9423
11050.0000     2.4444   108.3431   126.1359      .4532      .9312
11050.5000     2.4469   109.1862   120.1785      .4977      .9286
11051.0000     2.4539   109.1211   114.7507      .4866      .9379
11051.5000     2.4643   109.8796   113.3791      .4822      .9471
11052.0000     2.4691   110.1302   115.3845      .4544      .9390
11052.5000     2.4671   111.8750   118.3533      .4772      .9166
11053.0000     2.4562   112.0247   118.4663      .4680      .8955
11053.5000     2.4453   123.7533   120.3608      .4431      .8943
11054.0000     2.4385   122.3438   119.5104      .4314      .8729
11054.5000     2.4478   118.4668   127.4055      .4430      .8604
11055.0000     2.4725   116.4128   126.1523      .4262      .8508
11055.5000     2.4897   110.0000   124.2475      .4328      .8386
11056.0000     2.4879   114.8470   118.8487      .4125      .8663
11056.5000     2.4642   123.6263   123.8454      .4166      .8929
11057.0000     2.4379   113.3268   130.3899      .4047      .8683
11057.5000     2.4155   113.2780   132.7649      .4302      .8683
11058.0000     2.4039   114.2936   130.1463      .4632      .8733
11058.5000     2.4051   113.9420   124.6203      .4644      .8409
11059.0000     2.4126   110.6120   121.3398      .4354      .8285
11059.5000     2.4275   109.0560   124.2495      .3720      .8175
11060.0000     2.4430   103.9258   125.6681      .3545      .8147
11060.5000     2.4598   103.2259   124.7535      .3509      .8212
11061.0000     2.4715   101.4811   113.2300      .3859      .8455
11061.5000     2.4750   107.3145   110.2826      .3814      .8691
11062.0000     2.4726   106.4616   110.2206      .3913      .8914
11062.5000     2.4573   109.8047   114.8824      .3879      .8793
11063.0000     2.4370   124.0104   118.2718      .4064      .8777
11063.5000     2.4200   124.0560   121.9204      .4115      .8839
11064.0000     2.4231   123.8477   116.9000      .4167      .8888
11064.5000     2.4395   118.6979   107.8905      .4317      .8517
11065.0000     2.4473   111.0547   102.7573      .4213      .7910
11065.5000     2.4408   114.9349   101.8840      .4332      .8220
11066.0000     2.4264   118.4929   108.5120      .4038      .8648
11066.5000     2.4137   112.3535   110.7764      .3867      .8682
11067.0000     2.4045   113.8835   112.8661      .3638      .8897
11067.5000     2.3983   114.9967   107.8314      .3809      .9073
11068.0000     2.3919   115.0781   112.5632      .3978      .8817
11068.5000     2.3807   115.0651   114.5760      .4171      .8401
11069.0000     2.3715   114.8340   114.9348      .4067      .8294
11069.5000     2.3731   114.5963   110.0146      .4029      .8162
11070.0000     2.3858   114.7591   109.4934      .3869      .8095
11070.5000     2.3969   113.5905   113.4319      .3768      .7832
11071.0000     2.3974   113.4603   116.8243      .3957      .7736
11071.5000     2.3891   112.3698   113.2759      .4227      .7961
11072.0000     2.3847   111.8783   113.5498      .4441      .8068
11072.5000     2.3892   112.2070   111.5168      .4440      .8214
11073.0000     2.3938   112.8223   118.4454      .4343      .8120
11073.5000     2.4010   113.1283   121.3142      .4325      .7932
11074.0000     2.4107   113.6458   121.3047      .4274      .7798
11074.5000     2.4242   111.7122   118.8438      .4206      .7641
11075.0000     2.4309   113.5254   114.4675      .4014      .7646
11075.5000     2.4219   109.7396   109.2732      .3973      .7705
11076.0000     2.3956   110.8236   112.1990      .3921      .7978
11076.5000     2.3715   111.4583   111.0858      .4147      .8051
11077.0000     2.3681   113.3398   118.8432      .4091      .8016
11077.5000     2.3810   113.1901   114.9408      .4154      .8043
11078.0000     2.3939   113.6328   116.1875      .4533      .7982
11078.5000     2.3927   113.9648   114.7526      .4395      .7817
11079.0000     2.3925   114.9967   114.6179      .4345      .7721
11079.5000     2.3883   114.0658   114.4295      .3962      .7675
11080.0000     2.3850   114.1406   111.1609      .4071      .7580
11080.5000     2.3786   114.1927   112.7202      .4077      .7501
11081.0000     2.3736   114.7201   110.2998      .4118      .7499
11081.5000     2.3704   113.6230   109.7135      .4209      .7443
11082.0000     2.3655   113.4310   113.3496      .4163      .7334
11082.5000     2.3614   112.6432   119.7715      .4068      .7410
11083.0000     2.3571   113.7109   125.8614      .4148      .7518
11083.5000     2.3629   113.9290   123.6253      .4347      .7549
11084.0000     2.3680   113.7500   119.4824      .4634      .7486
11084.5000     2.3725   114.7494   117.7546      .4883      .7201
11085.0000     2.3767   115.7031   114.1660      .4808      .7157
11085.5000     2.3845   116.5755   115.6363      .4936      .7216
11086.0000     2.3883   116.6276   113.0590      .4823      .7299
11086.5000     2.3956   114.3327   113.5616      .4877      .7364
11087.0000     2.4111   114.1471   111.2243      .4315      .7431
11087.5000     2.4262   118.3724   112.6377      .3927      .7644
11088.0000     2.4350   121.7090   117.4825      .3949      .7917
11088.5000     2.4379   122.4121   123.9407      .4255      .7760
11089.0000     2.4388   121.6341   128.2102      .4330      .7629
11089.5000     2.4286   123.2259   125.0191      .4638      .7426
11090.0000     2.4214   122.5130   117.7779      .4695      .7370
11090.5000     2.4240   120.7878   116.9075      .4826      .7403
11091.0000     2.4293   120.2832   119.9585      .4407      .7419
11091.5000     2.4209   119.7135   115.3351      .4182      .7473
11092.0000     2.4123   120.1855   112.3114      .3874      .7532
11092.5000     2.4169   120.8040   112.3165      .3838      .7431
11093.0000     2.4301   121.7611   113.5577      .3853      .7371
11093.5000     2.4345   123.8086   110.8045      .3932      .7405
11094.0000     2.4257   115.5078   101.4366      .4216      .7543
11094.5000     2.4147   115.2376    98.8299      .4447      .7614
11095.0000     2.4093   112.6432    98.9771      .4958      .7553
11095.5000     2.4176   108.2785    97.7168      .4392      .7559
11096.0000     2.4381   107.7054    94.4621      .4153      .7546
11096.5000     2.4686   107.1323    90.2215      .3949      .8255
11097.0000     2.4945   110.7142    96.5833      .4386      .8933
11097.5000     2.4930   114.0096   105.9956      .4392      .8378
11098.0000     2.4622   117.3050   109.4136      .4440      .8307
11098.5000     2.4175   120.6003   111.3889      .4246      .8446
11099.0000     2.3872   118.0859   116.7561      .4536      .8371
11099.5000     2.3813   117.2428   119.3607      .4496      .8305
11100.0000     2.3866   117.5781   119.7938      .4213      .8296
11100.5000     2.3898   107.9297   113.3991      .3915      .8181
11101.0000     2.3931   111.0938   112.7027      .3827      .8089
11101.5000     2.4027   109.5963   112.5516      .4429      .8055
11102.0000     2.4201   120.0879   113.9379      .4755      .8120
