~VERSION INFORMATION
VERS.                                                 2.0:   CWLS Log ASCII Standard-VERSION 2.0
WRAP.                                                  NO:   One line per depth step
~Well Information Block
STRT.F                                          7564.5000:   Top Depth
STOP.F                                         11357.0000:   Bottom Depth
STEP.F                                             .50000:   Depth Increment
NULL.                                            -999.250:   Null Value
FLD .                                             FREEMAN:   Field Name
WELL.                                     FREEMAN-004-ST1:   NAME
CTRY.                                                 NIG:   COUNTRY
COMP.                                                SPDC:   OPERATOR
SPUD.                                          1998/05/26:   SPUD DATE
UWBI.                                      40000000257502:   UWBI
~PARAMETER INFORMATION (log)
LNAM.                                                                   PUBLIC:   NAME
LTYP.                                                              INTERPRETED:   LOG TYPE
LSRV.                                                               EVALUATION:   SERVICE
LVSN.                                                                        1:   LOG VERSION
BHIS.                                                                       RC:   BRIEF HISTORY
FHIS.                                                          RAW-LAS/PUBLISH:   FULL HISTORY
CN  .        SHELL NIGERIA EXPLORATION AND PRODUCTION COMPANY LIMITED (SNEPCO):   OPERATOR
~Curve Information Block
#MNEM.UNIT                                                             API CODE    No Description
#=========                                                             ========    == ===========
DEPT.F     FT. MD                            00 001 00 00:     1  DEPTH
DEN.G/CC                                                 :     2  Bulk Density                  =rhoz_e
DT.US/F                                                  :     3  Sonic (Compressional)         =dtlf_e
GR.API                                                   :     4  Gamma Ray                     =ecgr_02
NEUT.FRAC                                                :     5  Neutron Porosity              =nphi_02
RES_DEP.OHMM                                             :     6  Resistivity Deep              =aho90_r
~ASCII
# ...
 8662.5000     2.2785   135.9863    96.1051      .4521      .6925
 8663.0000     2.2833   135.9863   101.7669      .4671      .6971
 8663.5000     2.2874   135.9505   100.4087      .4584      .7020
 8664.0000     2.2849   136.1003   102.9539      .4711      .7044
 8664.5000     2.2796   136.0677   101.0477      .4739      .7108
 8665.0000     2.2788   136.0612   101.3195      .4527      .7224
 8665.5000     2.2817   136.1784    96.4133      .4740      .7323
 8666.0000     2.2836   136.4974    95.2698      .4401      .7268
 8666.5000     2.2818   137.2070    96.3903      .4647      .7064
 8667.0000     2.2759   137.1159   100.9932      .4598      .6983
 8667.5000     2.2708   136.8783   101.1018      .4795      .7135
 8668.0000     2.2704   136.5462   102.1400      .4717      .7295
 8668.5000     2.2728   135.9212    99.9292      .4565      .7392
 8669.0000     2.2732   135.3125    98.6126      .4534      .7553
 8669.5000     2.2692   135.3841    94.6882      .4547      .7715
 8670.0000     2.2639   134.8665    91.1699      .4715      .7853
 8670.5000     2.2655   133.9518    91.7280      .4605      .7793
 8671.0000     2.2741   134.1472    95.4986      .4578      .7711
 8671.5000     2.2844   134.8698    95.4050      .4078      .7538
 8672.0000     2.2892   135.8301    96.2622      .4132      .7311
 8672.5000     2.2887   136.4193    99.3685      .4252      .7178
 8673.0000     2.2868   136.3476   102.3650      .4297      .7124
 8673.5000     2.2822   135.7552   102.6252      .4480      .7139
 8674.0000     2.2761   135.4525    98.4669      .4743      .7159
 8674.5000     2.2667   134.7168   101.1953      .4810      .7247
 8675.0000     2.2656   134.6387   103.1122      .4718      .7309
 8675.5000     2.2725   134.9642   100.6492      .4557      .7366
 8676.0000     2.2787   135.3841   100.9363      .5012      .7400
 8676.5000     2.2747   136.0482   102.0400      .4981      .7428
 8677.0000     2.2665   135.9212   106.4854      .4816      .7514
 8677.5000     2.2647   135.3711   103.2222      .4661      .7652
 8678.0000     2.2715   134.5573    99.7272      .4775      .7836
 8678.5000     2.2827   133.7500    99.7837      .4753      .7975
 8679.0000     2.2921   133.2422   103.8929      .4347      .7967
 8679.5000     2.2982   133.5872   106.1743      .4186      .7806
 8680.0000     2.2988   134.1341   105.6677      .4306      .7605
 8680.5000     2.2982   134.4922   101.1398      .4669      .7316
 8681.0000     2.3007   134.9609   101.7629      .4529      .7027
 8681.5000     2.3094   135.2344   100.0961      .4465      .6908
 8682.0000     2.3186   134.7168   101.9767      .4290      .6864
 8682.5000     2.3248   134.3620   104.3218      .4438      .6898
 8683.0000     2.3283   132.5130   103.7395      .4227      .7055
 8683.5000     2.3292   130.4102   100.9137      .4336      .7584
 8684.0000     2.3273   127.7604    98.7390      .4253      .8264
 8684.5000     2.3249   126.9824   100.2179      .4700      .8869
 8685.0000     2.3258   127.6758   105.9748      .4540      .8628
 8685.5000     2.3256   130.3060   109.2380      .4417      .8264
 8686.0000     2.3202   129.4694   111.2308      .3983      .8282
 8686.5000     2.3138   129.0039   110.7861      .4099      .8236
 8687.0000     2.3123   127.7604   113.5632      .4506      .8344
 8687.5000     2.3137   127.6302   116.6532      .4766      .8547
 8688.0000     2.3160   128.1120   120.7780      .5096      .8566
 8688.5000     2.3215   129.0658   116.1525      .4912      .8539
 8689.0000     2.3287   129.4108   112.4208      .4935      .8561
 8689.5000     2.3325   129.1016   110.0582      .4457      .8881
 8690.0000     2.3292   129.1862   109.8901      .4403      .9298
 8690.5000     2.3209   128.3301   114.0591      .4357      .9733
 8691.0000     2.3162   127.3926   115.2685      .4456     1.0259
 8691.5000     2.3125   126.6081   109.1387      .4375     1.1079
 8692.0000     2.2934   126.0482    97.4690      .3600     1.4855
 8692.5000     2.2592   126.5755    89.3475      .3305     2.5439
 8693.0000     2.2348   127.4186    90.2215      .3463     2.5735
 8693.5000     2.2480   128.6198    98.9885      .3987     1.6967
 8694.0000     2.2776   131.1588   100.8197      .4160     1.3807
 8694.5000     2.2811   130.2864    97.6485      .3838     1.5103
 8695.0000     2.2430   130.1204    85.9882      .3610     2.0204
 8695.5000     2.1900   129.5020    81.1256      .3599     2.9447
 8696.0000     2.1581   128.6238    74.3381      .3390     2.8759
 8696.5000     2.1514   128.0507    68.6891      .3491     2.9349
 8697.0000     2.1412   127.4776    59.1071      .2923     4.7739
 8697.5000     2.1084   127.9785    53.5838      .2715     8.8779
 8698.0000     2.0633   129.1471    49.6652      .2432    11.8790
 8698.5000     2.0351   129.7917    46.4224      .2457    13.0306
 8699.0000     2.0280   129.4835    47.2410      .2575    14.7795
 8699.5000     2.0247   129.0823    45.5554      .2746    15.7149
 8700.0000     2.0121   128.6812    45.3380      .2961    14.0742
 8700.5000     2.0092   128.2800    43.1913      .3035     9.6662
 8701.0000     2.0416   127.8788    51.8010      .2968     5.3425
 8701.5000     2.1014   127.4776    57.8921      .3170     3.2206
 8702.0000     2.1431   126.6732    65.6513      .3302     2.9427
 8702.5000     2.1325   127.7930    65.1244      .3231     3.9650
 8703.0000     2.0991   128.9420    68.2501      .3285     4.2172
 8703.5000     2.1029   128.8216    80.8445      .3158     2.8484
 8704.0000     2.1625   126.7253    93.8029      .3475     1.9346
 8704.5000     2.2415   125.7747   104.7195      .3704     1.5180
 8705.0000     2.2975   126.6180   107.2399      .4110     1.2882
 8705.5000     2.3149   126.1881   107.7030      .4003     1.2880
 8706.0000     2.3045   125.7583   103.7256      .3648     1.5171
 8706.5000     2.2800   125.3515    98.1588      .3424     1.7627
 8707.0000     2.2551   128.2585    91.1673      .3396     1.8873
 8707.5000     2.2240   132.1973    81.5084      .3575     2.2775
 8708.0000     2.1647   129.3359    72.2363      .3287     3.4221
 8708.5000     2.0900   130.3432    69.3472      .3026     4.6654
 8709.0000     2.0581   131.2028    75.6271      .2890     4.0540
 8709.5000     2.0999   132.0625    86.4251      .3334     2.4416
 8710.0000     2.1697   132.9221    90.5107      .3981     2.1365
 8710.5000     2.1928   133.7818    80.9010      .4009     2.5274
 8711.0000     2.1480   134.6415    67.6718      .3586     3.6148
 8711.5000     2.0740   134.4759    57.8197      .2898     7.9085
 8712.0000     2.0156   133.5091    50.3687      .2558    19.7000
 8712.5000     1.9896   130.9961    44.7758      .2544    58.9492
 8713.0000     1.9837   129.6973    42.4897      .2788   337.4915
 8713.5000     1.9833   128.6621    43.9858      .2911   333.0505
 8714.0000     1.9865   129.3359    42.8756      .2735   154.9913
 8714.5000     1.9951   130.8496    38.4532      .2594   102.2781
 8715.0000     2.0007   132.6920    40.3289      .2509    93.4182
 8715.5000     1.9983   133.1413    41.3380      .2637   112.0463
 8716.0000     1.9912   131.9466    40.9179      .2609   166.3239
 8716.5000     1.9816   131.6927    40.2473      .2791   296.7309
 8717.0000     1.9625   128.7305    39.5035      .2844   616.4568
 8717.5000     1.9423   131.1816    41.0242      .3061  1340.0920
 8718.0000     1.9516   131.3021    42.9701      .2896  1912.6990
 8718.5000     1.9887   131.4063    43.5021      .2790  1935.8840
 8719.0000     2.0170   134.3392    46.3386      .2432  1950.0000
 8719.5000     2.0145   135.4460    43.6358      .2418  1950.0000
 8720.0000     1.9860   136.5723    43.6227      .2822  1950.0000
 8720.5000     1.9580   137.3568    40.4320      .2935  1950.0000
 8721.0000     1.9326   136.5104    40.8072      .3044  1950.0000
 8721.5000     1.9152   132.0801    41.2264      .2974  1950.0000
 8722.0000     1.9194   129.5085    44.5486      .3093  1950.0000
 8722.5000     1.9517   128.6556    46.4994      .3083  1950.0000
 8723.0000     1.9943   128.6100    48.0078      .2903  1950.0000
