~VERSION INFORMATION
VERS.                                                 2.0:   CWLS Log ASCII Standard-VERSION 2.0
WRAP.                                                  NO:   One line per depth step
~Well Information Block
STRT.F                                          5633.5000:   Top Depth
STOP.F                                          9740.0000:   Bottom Depth
STEP.F                                             .50000:   Depth Increment
NULL.                                            -999.250:   Null Value
FLD .                                             FREEMAN:   Field Name
WELL.                                     FREEMAN-003-ST1:   NAME
COMP.                                                SPDC:   OPERATOR
UWBI.                                      40000000257402:   UWBI
~PARAMETER INFORMATION (log)
LNAM.                                              PUBLIC:   NAME
LTYP.                                         INTERPRETED:   LOG TYPE
LSRV.                                          EVALUATION:   SERVICE
LVSN.                                                   1:   LOG VERSION
BHIS.                                                  RC:   BRIEF HISTORY
FHIS.                                     RAW-LAS/PUBLISH:   FULL HISTORY
CN  .                                              SNEPCO:   OPERATOR
DATE.                         Wednesday, March 11 2009 07:   RUN DATE
~Curve Information Block
#MNEM.UNIT                                        API CODE    No Description
#=========                                        ========    == ===========
DEPT.F     FT. MD                            00 001 00 00:     1  DEPTH
DEN.G/C3                                                 :     2  Bulk Density                  =rhoz_jr
DT.US/F                                                  :     3  Delta-T Compressional
GR.API                                                   :     4  Gamma Ray                     =ecgr_j
NEU.FRAC                                                 :     5  Neutron Porosity in Limestone =tnph_j
RES_DEP.OHMM                                             :     6  Resistivity Deep              =resd_jr
~ASCII
# ...
 6548.5000     1.9552   170.0000    62.8107      .7394     1.6374
 6549.0000     1.9569   170.0000    73.8080     1.0271     1.6446
 6549.5000     1.9535   172.8000    67.7189     1.2622     1.5590
 6550.0000     1.9062   172.8000    77.0027     1.1603     1.3120
 6550.5000     1.8016   173.5000    73.4552      .9654     1.1938
 6551.0000     1.7031   173.5000    74.9056      .9623     1.0953
 6551.5000     1.6772   173.5000    75.2554      .7685      .9574
 6552.0000     1.6917   176.2000    76.7201      .7627      .8622
 6552.5000     1.6897   168.8000    79.4059      .7068      .8921
 6553.0000     1.6855   168.7000    75.5285      .7253      .9372
 6553.5000     1.7279   172.9000    76.0836      .7044      .9616
 6554.0000     1.8038   167.7000    73.6926      .6430      .9952
 6554.5000     1.8639   166.8000    72.2521      .5933      .9779
 6555.0000     1.8853   165.5000    68.9251      .6295      .9308
 6555.5000     1.8772   162.3000    68.3497      .7653      .8558
 6556.0000     1.8619   161.9000    75.3494      .7238      .9041
 6556.5000     1.8536   161.1000    81.9964      .8259      .9808
 6557.0000     1.8446   159.1000    82.1606     1.1482     1.0068
 6557.5000     1.8261   159.1000    82.1101     1.4914      .9902
 6558.0000     1.8109   158.2000    81.9305     1.7956     1.0027
 6558.5000     1.8078   160.7000    81.7435     1.1911     1.0920
 6559.0000     1.8067   162.8000    82.6872      .7157     1.2184
 6559.5000     1.8099   164.9000    79.3809      .5167     1.2449
 6560.0000     1.8215   156.5000    76.7770      .5519     1.1914
 6560.5000     1.8151   162.3000    78.9586      .9246     1.1957
 6561.0000     1.7658   162.8000    76.6606      .7773     1.2425
 6561.5000     1.6888   166.8000    71.2417      .9127     1.2653
 6562.0000     1.6260   158.1000    67.0664      .7121     1.2448
 6562.5000     1.6046   160.8000    68.4226     1.1046     1.1944
 6563.0000     1.6185   165.9000    72.2874      .9260     1.1570
 6563.5000     1.6380   166.4000    77.4112      .9621     1.1414
 6564.0000     1.6584   165.0000    74.0621      .9722     1.1442
 6564.5000     1.7086   168.1000    69.0299      .8602     1.1774
 6565.0000     1.7907   163.7000    61.4764     1.1339     1.1794
 6565.5000     1.8588   157.2000    62.7291     1.1799     1.1526
 6566.0000     1.8622   158.1000    70.2323      .9635     1.1507
 6566.5000     1.7927   159.6000    76.5426      .5999     1.1825
 6567.0000     1.6815   160.6000    80.4609      .5797     1.1948
 6567.5000     1.5686   161.9000    85.9851      .5227     1.1513
 6568.0000     1.4933   153.6000    86.4311      .5562     1.1047
 6568.5000     1.4670   158.9000    87.4743      .4825     1.0936
 6569.0000     1.4814   158.9000    79.1116      .5497     1.0962
 6569.5000     1.5105   156.2000    78.7789      .5551     1.0884
 6570.0000     1.5185   156.2000    74.2804      .6403     1.0868
 6570.5000     1.4962   158.1000    76.3074      .7204     1.1186
 6571.0000     1.4701   158.1000    74.3248      .8098     1.1473
 6571.5000     1.4592   162.4000    78.2923     1.1107     1.1735
 6572.0000     1.4511   161.2000    80.1747     1.3120     1.1576
 6572.5000     1.4367   159.6000    81.9291     1.3998     1.0579
 6573.0000     1.4241   160.2000    79.2179     1.0317      .9448
 6573.5000     1.4204   160.7000    77.4881      .7965      .8388
 6574.0000     1.4258   158.2000    75.1441      .8212      .7637
 6574.5000     1.4429   155.5000    75.5895      .8925      .7349
 6575.0000     1.4772   159.6000    77.2999      .7515      .7418
 6575.5000     1.5459   156.8000    78.3308      .6486      .7751
 6576.0000     1.6762   159.4000    75.7403      .5179      .7898
 6576.5000     1.8590   159.1000    74.3295      .5715      .8222
 6577.0000     2.0234   158.4000    72.0819      .6296      .8532
 6577.5000     2.0880   152.0000    67.5032      .9198      .9539
 6578.0000     2.0492   154.8000    70.5315     1.2256     1.1020
 6578.5000     1.9971   154.3000    71.1401     1.3175     1.1722
 6579.0000     2.0069   149.7000    80.5326     1.0203     1.1251
 6579.5000     2.0653   147.7000    81.7844      .5989     1.1159
 6580.0000     2.1162   145.9000    84.6786      .4383     1.1802
 6580.5000     2.1310   150.2000    84.7696      .4283     1.3230
 6581.0000     2.1248   148.5000    84.0104      .5429     1.3912
 6581.5000     2.1142   155.7000    84.2968      .7828     1.3128
 6582.0000     2.1051   154.2000    88.5344      .9441     1.2259
 6582.5000     2.1025   156.1000    89.4579     1.0694     1.3155
 6583.0000     2.1000   155.1000    87.0630     1.1075     1.4468
 6583.5000     2.0937   157.3000    80.8046      .9077     1.4361
 6584.0000     2.0896   154.7000    78.5090      .6140     1.1714
 6584.5000     2.0914   157.3000    82.5557      .8981      .9028
 6585.0000     2.0922   153.3000    85.6262      .6343      .6748
 6585.5000     2.0861   154.8000    86.6872      .6102      .4825
 6586.0000     2.0791   151.6000    82.6491      .4141      .4111
 6586.5000     2.0810   154.6000    81.7075      .4423      .4058
 6587.0000     2.0902   157.9000    85.3130      .3985      .4696
 6587.5000     2.0960   159.5000    89.5366      .5051      .6569
 6588.0000     2.0942   158.0000    91.6627      .5044      .8676
 6588.5000     2.0856   157.5000    90.0643      .5546      .9611
 6589.0000     2.0685   155.5000    87.6644      .5396      .9790
 6589.5000     2.0494   156.4000    84.7646      .5095      .9581
 6590.0000     2.0484   154.3000    83.6056      .4861      .9763
 6590.5000     2.0734   157.5000    97.1105      .4426      .8958
 6591.0000     2.1010   159.4000    93.0817      .5224      .8243
 6591.5000     2.1076   157.1000    92.6917      .7015      .9108
 6592.0000     2.0990   153.3000    86.5328      .7837     1.0021
 6592.5000     2.0945   152.7000    84.0257      .6668     1.0664
 6593.0000     2.0969   152.7000    83.0038      .5385     1.1285
 6593.5000     2.0973   150.2000    81.5992      .6084     1.1878
 6594.0000     2.0942   150.3000    83.6084      .5953     1.2127
 6594.5000     2.0930   151.0000    82.9065      .5835     1.1916
 6595.0000     2.0959   152.9000    86.0559      .5220     1.1812
 6595.5000     2.0966   147.8000    83.4095      .4730     1.1836
 6596.0000     2.0888   150.5000    86.2206      .4956     1.1879
 6596.5000     2.0783   150.9000    83.7343      .4580     1.1970
 6597.0000     2.0748   152.4000    83.0386      .4910     1.1866
 6597.5000     2.0787   150.8000    81.8633      .5199     1.1883
 6598.0000     2.0854   151.2000    82.8977      .4917     1.1996
 6598.5000     2.0923   150.2000    82.0246      .4065     1.2094
 6599.0000     2.0982   152.8000    79.3809      .3721     1.2017
 6599.5000     2.0975   151.0000    79.2304      .4132     1.2066
 6600.0000     2.0895   151.9000    82.5353      .4671     1.2193
 6600.5000     2.0816   151.2000    86.6403      .4555     1.2187
 6601.0000     2.0835   152.4000    93.4951      .5748     1.2147
 6601.5000     2.0962   151.9000    91.3442      .5945     1.2071
 6602.0000     2.1071   153.0000    89.8094      .5896     1.2048
 6602.5000     2.1049   150.7000    80.5167      .6671     1.1926
 6603.0000     2.0940   152.4000    80.1185      .5967     1.1811
 6603.5000     2.0868   152.7000    77.0898     1.0664     1.1828
 6604.0000     2.0864   152.2000    78.2498      .7423     1.1931
 6604.5000     2.0868   152.4000    76.3536      .7941     1.2027
 6605.0000     2.0844   155.1000    76.9855      .5851     1.1965
 6605.5000     2.0824   152.7000    83.9009      .6071     1.1841
 6606.0000     2.0836   154.5000    86.6347      .6984     1.1870
 6606.5000     2.0904   154.7000    88.1820      .5472     1.2025
 6607.0000     2.1043   153.3000    82.9400      .5450     1.2190
 6607.5000     2.1175   154.1000    80.2013      .5823     1.2014
 6608.0000     2.1205   154.6000    77.0335      .7159     1.1574
 6608.5000     2.1125   154.3000    78.4224      .7711     1.1220
 6609.0000     2.1012   153.3000    79.9533      .7072     1.1197
