~VERSION INFORMATION
VERS.                                                 2.0:   CWLS Log ASCII Standard-VERSION 2.0
WRAP.                                                  NO:   One line per depth step
~Well Information Block
STRT.F                                          7564.5000:   Top Depth
STOP.F                                         11357.0000:   Bottom Depth
STEP.F                                             .50000:   Depth Increment
NULL.                                            -999.250:   Null Value
FLD .                                             FREEMAN:   Field Name
WELL.                                     FREEMAN-004-ST1:   NAME
CTRY.                                                 NIG:   COUNTRY
COMP.                                                SPDC:   OPERATOR
SPUD.                                          1998/05/26:   SPUD DATE
UWBI.                                      40000000257502:   UWBI
~PARAMETER INFORMATION (log)
LNAM.                                                                   PUBLIC:   NAME
LTYP.                                                              INTERPRETED:   LOG TYPE
LSRV.                                                               EVALUATION:   SERVICE
LVSN.                                                                        1:   LOG VERSION
BHIS.                                                                       RC:   BRIEF HISTORY
FHIS.                                                          RAW-LAS/PUBLISH:   FULL HISTORY
CN  .        SHELL NIGERIA EXPLORATION AND PRODUCTION COMPANY LIMITED (SNEPCO):   OPERATOR
~Curve Information Block
#MNEM.UNIT                                                             API CODE    No Description
#=========                                                             ========    == ===========
DEPT.F     FT. MD                            00 001 00 00:     1  DEPTH
DEN.G/CC                                                 :     2  Bulk Density                  =rhoz_e
DT.US/F                                                  :     3  Sonic (Compressional)         =dtlf_e
GR.API                                                   :     4  Gamma Ray                     =ecgr_02
NEUT.FRAC                                                :     5  Neutron Porosity              =nphi_02
RES_DEP.OHMM                                             :     6  Resistivity Deep              =aho90_r
~ASCII
# ...
10553.5000     2.4055   103.9388   126.0928      .3805     1.3731
10554.0000     2.4049   104.5931   122.8031      .3797     1.3624
10554.5000     2.4112   104.9023   120.5325      .3740     1.3339
10555.0000     2.4178   106.2728   121.7754      .3825     1.3163
10555.5000     2.4157   106.2175   122.5907      .3589     1.3682
10556.0000     2.4051   104.9674   120.5304      .3566     1.4953
10556.5000     2.3973   104.6712   122.3008      .3420     1.6719
10557.0000     2.3975   103.1218   119.1776      .3502     1.8121
10557.5000     2.4030   105.4134   113.6696      .3598     1.7059
10558.0000     2.4104   104.9544   115.5481      .3881     1.5717
10558.5000     2.4130   104.7917   120.6214      .3941     1.5592
10559.0000     2.4104   104.1992   118.9192      .3787     1.5422
10559.5000     2.4038   103.1022   112.1144      .3630     1.5769
10560.0000     2.3948   103.8151   106.6413      .3723     1.7664
10560.5000     2.3895   106.6667   109.3863      .3858     1.8063
10561.0000     2.3856   106.4811   119.5622      .3959     1.6544
10561.5000     2.3878   106.1621   126.7034      .3725     1.5867
10562.0000     2.3998   106.5495   130.4126      .3686     1.5572
10562.5000     2.4184   106.3379   118.3605      .3808     1.5059
10563.0000     2.4341   106.1393   120.5494      .4069     1.4272
10563.5000     2.4360   107.3535   123.4968      .4173     1.3346
10564.0000     2.4273   107.3438   129.7239      .3900     1.3252
10564.5000     2.4132   107.6986   126.9480      .3792     1.3307
10565.0000     2.4003   106.5690   125.0019      .3892     1.2771
10565.5000     2.3887   106.1979   125.4344      .3844     1.2309
10566.0000     2.3842   106.0417   125.6899      .3969     1.2630
10566.5000     2.3854   105.5436   124.9222      .3842     1.2462
10567.0000     2.3882   106.2305   122.8667      .4255     1.2266
10567.5000     2.3911   106.8294   126.4822      .4197     1.2996
10568.0000     2.3951   106.5885   125.7441      .4280     1.4191
10568.5000     2.3995   106.4095   123.9868      .4218     1.4680
10569.0000     2.4053   106.1686   119.5112      .4149     1.4793
10569.5000     2.4109   105.6706   121.4483      .4099     1.5346
10570.0000     2.4137   106.2923   122.0225      .3769     1.5445
10570.5000     2.4059   105.1888   119.7020      .3739     1.5866
10571.0000     2.3832   104.6126   112.4530      .3464     1.6670
10571.5000     2.3605   104.9609   108.1349      .3759     1.8266
10572.0000     2.3563   104.7917   105.0712      .3650     2.1946
10572.5000     2.3751   103.7891   110.9486      .3715     2.1729
10573.0000     2.4014   103.0501   113.1661      .3520     2.0231
10573.5000     2.4192   102.9980   118.4228      .3755     1.9207
10574.0000     2.4223   104.3001   122.8720      .3601     1.9832
10574.5000     2.4193   104.0755   126.2138      .3691     1.8356
10575.0000     2.4171   104.8665   127.9430      .3938     1.8027
10575.5000     2.4189   104.2675   122.4339      .4152     1.5023
10576.0000     2.4202   103.6556   118.4779      .4342     1.2517
10576.5000     2.4194   102.9297   116.3989      .3831     1.2909
10577.0000     2.4202   103.0924   118.0225      .3710     1.3829
10577.5000     2.4236   102.9330   120.5198      .3335     1.4678
10578.0000     2.4266   102.7865   117.0799      .3474     1.5620
10578.5000     2.4261   103.6361   116.0307      .3469     1.5254
10579.0000     2.4219   103.3268   115.8997      .3527     1.5670
10579.5000     2.4146   103.9225   118.1171      .3572     1.5513
10580.0000     2.4096   103.6491   113.2895      .3758     1.5087
10580.5000     2.4096   103.9681   108.6625      .3812     1.4795
10581.0000     2.4147   104.4955   108.4864      .3671     1.5379
10581.5000     2.4199   104.6940   112.6893      .3514     1.6015
10582.0000     2.4191   103.9518   113.5690      .3516     1.7071
10582.5000     2.4092   103.8281   111.2627      .3753     1.7719
10583.0000     2.3942   104.9349   108.1078      .3862     1.8406
10583.5000     2.3792   106.2370   108.0191      .3705     1.9286
10584.0000     2.3701   105.1009   111.4239      .3249     1.9552
10584.5000     2.3690   105.1400   114.5859      .3211     2.0065
10585.0000     2.3781   104.8307   115.9813      .3324     1.9181
10585.5000     2.3928   104.9414   119.0547      .3819     1.8488
10586.0000     2.4015   104.9316   118.5465      .3621     1.7663
10586.5000     2.3965   104.4727   118.7974      .3685     1.7078
10587.0000     2.3846   104.1081   113.6849      .3448     1.7325
10587.5000     2.3791   103.6751   112.0350      .3672     1.7710
10588.0000     2.3840   104.7103   114.5572      .3550     1.7514
10588.5000     2.3919   104.4987   115.5158      .3682     1.7745
10589.0000     2.3985   106.6211   118.7821      .3736     1.7767
10589.5000     2.4046   107.4121   121.2741      .3945     1.7606
10590.0000     2.4110   107.0996   123.6881      .3979     1.6447
10590.5000     2.4190   107.9395   125.5235      .4051     1.5852
10591.0000     2.4280   107.9753   123.3539      .4036     1.5292
10591.5000     2.4281   106.0514   124.1926      .3796     1.4946
10592.0000     2.4108   104.4401   118.9779      .3742     1.5472
10592.5000     2.3871   104.0918   119.0103      .3599     1.7436
10593.0000     2.3700   103.1022   112.6235      .3715     1.9670
10593.5000     2.3583   103.6393   107.3401      .3421     2.0448
10594.0000     2.3429   103.6686   104.6234      .3320     2.1267
10594.5000     2.3356   104.0071   104.5220      .3486     2.1917
10595.0000     2.3517   104.4759   109.9157      .3612     2.2453
10595.5000     2.3800   104.3131   108.2857      .3675     2.1708
10596.0000     2.4014   105.4102   112.7463      .3630     1.8778
10596.5000     2.4090   106.1165   116.9159      .3499     1.6464
10597.0000     2.4135   105.7324   122.1430      .3527     1.5180
10597.5000     2.4166   106.3932   118.4279      .3456     1.4862
10598.0000     2.4178   105.6996   119.3156      .3712     1.4820
10598.5000     2.4161   105.5849   120.6021      .3829     1.4228
10599.0000     2.4136   105.4703   122.2593      .3624     1.4323
10599.5000     2.4102   105.3557   119.5551      .3432     1.4442
10600.0000     2.4076   105.2411   117.6394      .3392     1.4524
10600.5000     2.4099   105.1264   120.5896      .3442     1.5068
10601.0000     2.4149   105.4818   121.4475      .3719     1.5262
10601.5000     2.4182   106.0156   118.0510      .3857     1.5372
10602.0000     2.4175   105.2962   118.2253      .4008     1.5702
10602.5000     2.4170   105.5827   117.7590      .3930     1.5976
10603.0000     2.4174   104.3913   123.1222      .3616     1.5711
10603.5000     2.4202   104.1895   118.6895      .3649     1.5289
10604.0000     2.4200   104.1634   121.2593      .3650     1.4794
10604.5000     2.4133   104.3424   119.4616      .3832     1.5069
10605.0000     2.3917   105.8105   120.1027      .3678     1.5958
10605.5000     2.3610   107.6367   117.9939      .3520     1.7040
10606.0000     2.3304   108.8314   111.2283      .3345     1.8200
10606.5000     2.3027   111.4583   114.2376      .3326     1.9813
10607.0000     2.2774   112.9622   115.5058      .3273     2.1629
10607.5000     2.2594   113.1499   120.7098      .3410     2.4966
10608.0000     2.2593   113.0353   119.7773      .3366     3.0722
10608.5000     2.2770   112.9207   116.3010      .3282     3.5156
10609.0000     2.2977   112.8061   118.7993      .2978     3.7001
10609.5000     2.3027   112.6915   121.9835      .2986     3.4421
10610.0000     2.2823   112.5768   129.0947      .2888     2.9775
10610.5000     2.2602   106.6309   127.1473      .3114     2.5608
10611.0000     2.2699   105.0716   124.1092      .3087     2.3568
10611.5000     2.3211   104.0006   117.4907      .3458     2.7309
10612.0000     2.3837   104.2936   112.7875      .3502     2.5171
10612.5000     2.4229   104.3164   114.2630      .3727     2.0479
10613.0000     2.4370   105.3125   113.0412      .3820     1.6375
10613.5000     2.4408   105.8789   118.7798      .3922     1.3370
10614.0000     2.4369   106.4485   120.0402      .3966     1.1646
