~VERSION INFORMATION
VERS.                                                 2.0:   CWLS Log ASCII Standard-VERSION 2.0
WRAP.                                                  NO:   One line per depth step
~Well Information Block
STRT.F                                          7564.5000:   Top Depth
STOP.F                                         11357.0000:   Bottom Depth
STEP.F                                             .50000:   Depth Increment
NULL.                                            -999.250:   Null Value
FLD .                                             FREEMAN:   Field Name
WELL.                                     FREEMAN-004-ST1:   NAME
CTRY.                                                 NIG:   COUNTRY
COMP.                                                SPDC:   OPERATOR
SPUD.                                          1998/05/26:   SPUD DATE
UWBI.                                      40000000257502:   UWBI
~PARAMETER INFORMATION (log)
LNAM.                                                                   PUBLIC:   NAME
LTYP.                                                              INTERPRETED:   LOG TYPE
LSRV.                                                               EVALUATION:   SERVICE
LVSN.                                                                        1:   LOG VERSION
BHIS.                                                                       RC:   BRIEF HISTORY
FHIS.                                                          RAW-LAS/PUBLISH:   FULL HISTORY
CN  .        SHELL NIGERIA EXPLORATION AND PRODUCTION COMPANY LIMITED (SNEPCO):   OPERATOR
~Curve Information Block
#MNEM.UNIT                                                             API CODE    No Description
#=========                                                             ========    == ===========
DEPT.F     FT. MD                            00 001 00 00:     1  DEPTH
DEN.G/CC                                                 :     2  Bulk Density                  =rhoz_e
DT.US/F                                                  :     3  Sonic (Compressional)         =dtlf_e
GR.API                                                   :     4  Gamma Ray                     =ecgr_02
NEUT.FRAC                                                :     5  Neutron Porosity              =nphi_02
RES_DEP.OHMM                                             :     6  Resistivity Deep              =aho90_r
~ASCII
# ...
 8906.5000     2.3009   127.0768    97.9804      .5220     1.0062
 8907.0000     2.2999   129.0983    98.5726      .5502     1.0124
 8907.5000     2.3035   127.6823   100.5122      .5379     1.0247
 8908.0000     2.3147   127.2135   103.9577      .5024     1.0253
 8908.5000     2.3301   125.5404   101.9000      .4960     1.0219
 8909.0000     2.3456   125.8301   100.4492      .5087     1.0235
 8909.5000     2.3510   126.5560    89.7936      .5414     1.0275
 8910.0000     2.3412   126.8001    89.3368      .5237      .9820
 8910.5000     2.3240   127.8255    94.6087      .5060     1.0297
 8911.0000     2.3075   127.4870   101.7952      .4833     1.0044
 8911.5000     2.3018   126.0514   107.9605      .5099      .9620
 8912.0000     2.3011   125.6217   105.3092      .5069      .9669
 8912.5000     2.3029   125.0586   106.1597      .5070     1.0644
 8913.0000     2.3019   125.0619   105.6695      .5028     1.0903
 8913.5000     2.2975   126.3086   105.3411      .5007     1.0937
 8914.0000     2.2914   126.2109   104.1088      .4629     1.0510
 8914.5000     2.2881   126.0351    99.0997      .4627      .9350
 8915.0000     2.2909   125.3516    94.3348      .4175     1.0014
 8915.5000     2.2974   125.1302    94.8856      .4740     1.0804
 8916.0000     2.3040   126.9889   100.0731      .4881     1.1125
 8916.5000     2.3046   129.0007   100.8778      .5272     1.0128
 8917.0000     2.3016   129.3164   101.9167      .5176      .9792
 8917.5000     2.2996   127.7767    97.7648      .4864      .8893
 8918.0000     2.3010   125.4330   106.0166      .4958      .9317
 8918.5000     2.3024   124.6484   105.7027      .5155      .9991
 8919.0000     2.2999   124.6322   109.2384      .5821      .9214
 8919.5000     2.2947   126.9955   103.7756      .5631      .8114
 8920.0000     2.2885   126.8945    99.3475      .5367      .8971
 8920.5000     2.2810   126.5755    95.9651      .5020     1.0584
 8921.0000     2.2752   126.8099    99.7282      .5287     1.0368
 8921.5000     2.2711   127.3145   101.2620      .5457      .8645
 8922.0000     2.2720   127.9688    99.3370      .5401      .7543
 8922.5000     2.2775   128.6068    99.0937      .5055      .7513
 8923.0000     2.2835   129.4596   101.7602      .4780      .7709
 8923.5000     2.2894   129.3034    96.6275      .4842      .7892
 8924.0000     2.2920   129.6159    95.8411      .5080      .8331
 8924.5000     2.2929   129.4955    91.7970      .5232      .9105
 8925.0000     2.2900   129.6875   100.2105      .4918      .9510
 8925.5000     2.2848   129.2773   102.4126      .4914      .9318
 8926.0000     2.2818   128.3431   100.6493      .4899      .8599
 8926.5000     2.2835   128.3138    94.8563      .4896      .8728
 8927.0000     2.2900   127.1192    89.8083      .4706      .9555
 8927.5000     2.2941   127.3047    94.3613      .4499      .9398
 8928.0000     2.2920   127.1940    97.8466      .4498      .9561
 8928.5000     2.2877   125.8398   101.7899      .4723     1.0681
 8929.0000     2.2931   125.9928    98.9029      .5075     1.1050
 8929.5000     2.3059   125.8659    99.4246      .5029     1.1041
 8930.0000     2.3170   125.4590   100.1349      .4904     1.1136
 8930.5000     2.3192   125.1009    99.6526      .4685     1.1649
 8931.0000     2.3166   123.6556    98.9511      .4991     1.1929
 8931.5000     2.3171   121.8587    93.4041      .4826     1.1718
 8932.0000     2.3184   119.0300    95.7346      .4859     1.1548
 8932.5000     2.3223   117.5846    95.8770      .4642     1.1596
 8933.0000     2.3282   116.7220    95.7932      .4500     1.1919
 8933.5000     2.3325   116.4811    91.1929      .4462     1.2424
 8934.0000     2.3308   120.2149    88.7065      .4294     1.2822
 8934.5000     2.3225   123.8281    92.6227      .4350     1.2898
 8935.0000     2.3125   125.4688   101.3795      .4380     1.2047
 8935.5000     2.3066   124.2741   102.3621      .4549     1.0427
 8936.0000     2.3155   119.9381    99.9397      .4280      .9945
 8936.5000     2.3372   114.7298    94.6701      .4212     1.1415
 8937.0000     2.3536   112.4544    92.7868      .3903     1.3467
 8937.5000     2.3499   114.7168    89.2672      .4209     1.3861
 8938.0000     2.3322   118.9844    83.8674      .4391     1.3434
 8938.5000     2.3151   123.4928    87.7664      .4862     1.1994
 8939.0000     2.3056   129.3783    91.9548      .5099      .9812
 8939.5000     2.3042   132.2070    98.2757      .5070      .8860
 8940.0000     2.3073   132.0150    95.2511      .4939      .8532
 8940.5000     2.3108   130.7194    96.6549      .4575      .8177
 8941.0000     2.3113   129.5280    97.2793      .4234      .8181
 8941.5000     2.3073   128.9095    97.1003      .4490      .8568
 8942.0000     2.2988   128.3235    95.3778      .4884      .8986
 8942.5000     2.2921   129.3945    95.4927      .5212      .8867
 8943.0000     2.2908   130.2995    98.2890      .5018      .8310
 8943.5000     2.2917   130.3190    99.5438      .5126      .7716
 8944.0000     2.2913   129.1504    95.9937      .5136      .7466
 8944.5000     2.2905   127.6139    98.9798      .5039      .8117
 8945.0000     2.2934   127.0605    98.0973      .4877      .8438
 8945.5000     2.2966   126.4778    99.1346      .4868      .8683
 8946.0000     2.2958   127.5553    96.4921      .4877      .9068
 8946.5000     2.2937   127.8646    98.2012      .4783      .9410
 8947.0000     2.2932   126.1068   101.7813      .4490      .9576
 8947.5000     2.2993   124.7591    97.0079      .4363      .9730
 8948.0000     2.3090   124.8047    97.2935      .4535      .9847
 8948.5000     2.3107   125.9538    92.9761      .4874      .9908
 8949.0000     2.2974   127.2624    97.0444      .5175      .9660
 8949.5000     2.2738   128.4701    93.4203      .4860      .9599
 8950.0000     2.2563   129.0853    95.5872      .4761      .9572
 8950.5000     2.2570   128.3919    94.8112      .4631      .9436
 8951.0000     2.2736   127.2168    94.6765      .4846      .9241
 8951.5000     2.2936   128.1901    90.4188      .4897      .9065
 8952.0000     2.3053   128.1510    90.2573      .4968      .8865
 8952.5000     2.3099   128.6523    92.3577      .5066      .8763
 8953.0000     2.3123   129.1439    94.8047      .5127      .8801
 8953.5000     2.3114   127.4674    98.8704      .5076      .9101
 8954.0000     2.3016   128.2813    98.6190      .5080      .8999
 8954.5000     2.2878   128.8216   100.7696      .5008      .8738
 8955.0000     2.2805   127.6107    99.8591      .5224      .8573
 8955.5000     2.2838   127.8418   100.1537      .5178      .8509
 8956.0000     2.2854   124.8991    99.6391      .4751      .8381
 8956.5000     2.2765   126.0970    96.5261      .4492      .7313
 8957.0000     2.2808   126.1295    98.2200      .4646      .6302
 8957.5000     2.3167   125.7552    97.6343      .5044      .6939
 8958.0000     2.3468   126.8196   101.9514      .5304      .8035
 8958.5000     2.3467   126.5202   102.0937      .4925      .8378
 8959.0000     2.3221   127.1289   105.6799      .4942      .7885
 8959.5000     2.3124   127.6432   103.2463      .4636      .8075
 8960.0000     2.3132   127.5391   100.0687      .4923      .8289
 8960.5000     2.3110   127.2070   102.6913      .4807      .7749
 8961.0000     2.3120   126.4128   101.4187      .5060      .6873
 8961.5000     2.3193   125.7975   104.9216      .5068      .5954
 8962.0000     2.3253   126.0221   100.3202      .5120      .4633
 8962.5000     2.3240   126.8327   106.1227      .5137      .4047
 8963.0000     2.3185   127.4772   105.8993      .4880      .3786
 8963.5000     2.3139   127.9199   106.4957      .4778      .4462
 8964.0000     2.3130   127.5912   100.8778      .4308      .5624
 8964.5000     2.3115   127.2331   104.7404      .4361      .6242
 8965.0000     2.3090   126.9238   104.4873      .4594      .7481
 8965.5000     2.3062   127.0150   107.5951      .5288      .9040
 8966.0000     2.3051   127.0312   104.1092      .5288     1.0458
 8966.5000     2.3029   127.1387   109.2712      .5042     1.0926
 8967.0000     2.3008   127.4349   107.4650      .4495      .9871
