~VERSION INFORMATION
VERS.                                                 2.0:   CWLS Log ASCII Standard-VERSION 2.0
WRAP.                                                  NO:   One line per depth step
~Well Information Block
STRT.F                                          7679.0000:   Top Depth
STOP.F                                          8606.0000:   Bottom Depth
STEP.F                                             .50000:   Depth Increment
NULL.                                            -999.250:   Null Value
FLD .                                             FREEMAN:   Field Name
WELL.                                         FREEMAN-004:   NAME
CTRY.                                                 NIG:   COUNTRY
COMP.                                                SPDC:   OPERATOR
SPUD.                                          1998/05/26:   SPUD DATE
UWBI.                                      40000000257501:   UWBI
~PARAMETER INFORMATION (log)
LNAM.                                              PUBLIC:   NAME
LTYP.                                         INTERPRETED:   LOG TYPE
LSRV.                                          EVALUATION:   SERVICE
LVSN.                                                   1:   LOG VERSION
BHIS.                                                  RC:   BRIEF HISTORY
FHIS.                                     RAW-LAS/PUBLISH:   FULL HISTORY
CN  .                                              SNEPCO:   OPERATOR
~Curve Information Block
#MNEM.UNIT                                        API CODE    No Description
#=========                                        ========    == ===========
DEPT.F     FT. MD                            00 001 00 00:     1  DEPTH
DEN.G/CC                                                 :     2  Bulk Density                  =rhoz_01r
GR.API                                                   :     3  Gamma Ray                     =gr_01
NEUT.FRAC                                                :     4  Neutron Porosity              =tnph_01
RES_DEP.OHMM                                             :     5  Resistivity Deep              =aho90_1r
~ASCII
# ...
 7752.0000     2.8603    32.8114      .7307      .1109
 7752.5000     2.5776    31.0444      .7077      .1109
 7753.0000     2.2609    28.3569      .7067      .1109
 7753.5000     2.1238    29.3981      .7674      .1109
 7754.0000     2.0923    31.5334      .7790      .1109
 7754.5000     2.0743    31.7106      .6779      .1109
 7755.0000     2.0497    30.3822      .6638      .1109
 7755.5000     2.0329    29.2854      .7019      .1109
 7756.0000     2.0234    26.3714      .7920      .1109
 7756.5000     2.0160    27.0430      .7674      .1109
 7757.0000     2.0093    27.4515      .7008      .1109
 7757.5000     2.0038    30.2704      .6583      .1109
 7758.0000     1.9927    30.9461      .6703      .1109
 7758.5000     1.9688    30.8162      .6715      .1109
 7759.0000     1.9363    29.7194      .6467      .1109
 7759.5000     1.9203    28.8997      .5650      .1109
 7760.0000     1.9419    30.2797      .6010      .1108
 7760.5000     1.9809    31.7628      .6690      .1094
 7761.0000     2.0161    32.3464      .7853      .1072
 7761.5000     2.0349    32.4421      .8462      .1065
 7762.0000     2.0453    31.9325      .9311      .1066
 7762.5000     2.0516    33.6401      .7200      .1086
 7763.0000     2.0496    33.4739      .6886      .1098
 7763.5000     2.0477    30.6381      .5754      .1078
 7764.0000     2.0476    27.2653      .6056      .1075
 7764.5000     2.0543    26.9732      .6293      .1087
 7765.0000     2.0788    27.1875      .7483      .1089
 7765.5000     2.1236    28.0122      .8004      .1109
 7766.0000     2.1894    28.8047      .8283      .1113
 7766.5000     2.2887    28.7689      .8991      .1092
 7767.0000     2.3476    29.7015      .7294      .1099
 7767.5000     2.3565    29.6143      .6156      .1108
 7768.0000     2.3017    30.8530      .5968      .1104
 7768.5000     2.2226    32.0742      .6850      .1130
 7769.0000     2.1551    32.5141      .9498      .1125
 7769.5000     2.1037    30.1392     1.1067      .1098
 7770.0000     2.0971    29.2119     1.0904      .1096
 7770.5000     2.1045    27.5864      .9699      .1110
 7771.0000     2.1229    30.1222      .8420      .1112
 7771.5000     2.1570    30.8125      .8205      .1133
 7772.0000     2.1839    31.2191      .8573      .1121
 7772.5000     2.1712    31.1007      .7938      .1111
 7773.0000     2.1306    30.1616      .7781      .1108
 7773.5000     2.0965    30.4084      .7053      .1102
 7774.0000     2.0888    32.2486      .6735      .1125
 7774.5000     2.0981    34.4230      .6436      .1138
 7775.0000     2.1128    37.2792      .7725      .1124
 7775.5000     2.1264    39.9223     1.0173      .1102
 7776.0000     2.1335    40.4812      .8556      .1107
 7776.5000     2.1341    37.3541      .7224      .1109
 7777.0000     2.1263    36.9093      .7124      .1135
 7777.5000     2.1116    32.8651      .6689      .1152
 7778.0000     2.0996    33.9341      .6096      .1139
 7778.5000     2.0970    33.0223      .6254      .1138
 7779.0000     2.1012    34.0849      .5953      .1134
 7779.5000     2.1077    35.0412      .6594      .1159
 7780.0000     2.1162    35.6999      .6744      .1207
 7780.5000     2.1142    35.1366      .6321      .1202
 7781.0000     2.0933    32.6855      .5958      .1189
 7781.5000     2.0641    31.3052      .6559      .1202
 7782.0000     2.0461    30.9847      .7000      .1207
 7782.5000     2.0400    32.2230      .7985      .1217
 7783.0000     2.0412    32.1054      .7094      .1245
 7783.5000     2.0543    32.7645      .7207      .1241
 7784.0000     2.0846    32.2392      .7530      .1237
 7784.5000     2.1302    31.8048      .7435      .1228
 7785.0000     2.3495    31.9962      .7296      .1247
 7785.5000     3.0128    32.9735      .7485      .1280
 7786.0000     3.8273    34.1615      .8324      .1348
 7786.5000     4.4565    35.7860      .8644      .1403
 7787.0000     4.6267    34.5393      .8545      .1532
 7787.5000     4.6288    35.0538      .9348      .1558
 7788.0000     4.6288    36.2853      .8971      .1597
 7788.5000     4.6288    35.8603      .6870      .1717
 7789.0000     4.6288    34.9557      .5935      .1698
 7789.5000     4.4521    36.0139      .5582      .1668
 7790.0000     3.7253    42.7101      .5359      .1987
 7790.5000     2.7940    48.8503      .5423      .1715
 7791.0000     2.0606    52.7566      .5384      .1057
 7791.5000     1.9590    55.8286      .4934      .1403
 7792.0000     2.0773    56.5288      .4527      .3324
 7792.5000     2.1722    55.9592      .4605      .5647
 7793.0000     2.1971    57.4610      .5444      .9413
 7793.5000     2.1985    61.5881      .5688     1.6768
 7794.0000     2.1858    59.8963      .5240     1.6834
 7794.5000     2.1640    54.6407      .4581     2.6427
 7795.0000     2.1595    48.9508      .5118     3.8268
 7795.5000     2.1807    50.4242      .4986     3.7314
 7796.0000     2.1931    52.3356      .5549     2.0253
 7796.5000     2.1864    53.8480      .6815     1.1796
 7797.0000     2.1851    54.8860      .7114      .8996
 7797.5000     2.2023    56.0203      .7912      .8667
 7798.0000     2.2146    56.6843      .6978      .8578
 7798.5000     2.1916    58.6695      .7316      .8794
 7799.0000     2.1644    60.6754      .6723      .9135
 7799.5000     2.1776    59.5042      .6401      .9226
 7800.0000     2.2144    60.0149      .5207      .9878
 7800.5000     2.2385    59.8504      .4875     1.1595
 7801.0000     2.2372    61.3806      .4521     1.1877
 7801.5000     2.2277    55.9361      .5067      .9929
 7802.0000     2.2073    54.3630      .5536      .8860
 7802.5000     2.1804    54.4214      .6442      .8176
 7803.0000     2.1687    55.2719      .6723      .7648
 7803.5000     2.1745    60.7611      .7716      .7724
 7804.0000     2.1835    65.0189      .7329      .7793
 7804.5000     2.1885    65.2314      .6506      .7986
 7805.0000     2.1838    64.8935      .5193      .7903
 7805.5000     2.1741    66.0064      .4919      .7772
 7806.0000     2.1594    63.6848      .5142      .7639
 7806.5000     2.1573    62.4584      .5047      .7717
 7807.0000     2.1556    61.0653      .4388      .7945
 7807.5000     2.1481    61.9507      .4290      .7697
 7808.0000     2.1468    62.3274      .4306      .7720
 7808.5000     2.1617    61.2951      .4392      .8055
 7809.0000     2.1816    58.4284      .4686      .8086
 7809.5000     2.1952    56.5636      .4977      .8191
 7810.0000     2.1985    55.5409      .5620      .8448
 7810.5000     2.1972    58.2570      .6189      .8277
 7811.0000     2.1905    60.7410      .7302      .8005
 7811.5000     2.1872    62.3063      .7216      .7775
 7812.0000     2.1825    63.3722      .5809      .7785
 7812.5000     2.1729    62.6833      .4704      .7895
 7813.0000     2.1642    62.4396      .6635      .7992
 7813.5000     2.1783    67.0613      .5858      .8573
 7814.0000     2.2089    69.3968      .7191      .9049
 7814.5000     2.2283    70.5995      .5977      .8994
 7815.0000     2.2173    69.5130      .6972      .8838
 7815.5000     2.1956    71.9900      .7191      .8802
 7816.0000     2.1824    76.7476      .5478      .8469
 7816.5000     2.1735    74.1661      .4397      .8443
 7817.0000     2.1502    74.7034      .4667      .8147
 7817.5000     2.1253    80.1477      .4764      .7578
 7818.0000     2.1185    88.2884      .5158      .8382
 7818.5000     2.1369    89.8621      .5484      .8523
 7819.0000     2.1732    95.3811      .5727      .8640
 7819.5000     2.2156    94.8756      .5269      .9629
 7820.0000     2.2561    97.9447      .4827     1.1016
 7820.5000     2.2812    93.3821      .4922     1.1827
 7821.0000     2.2796    87.1082      .4830     1.1882
 7821.5000     2.2333    80.5760      .5506     1.2149
 7822.0000     2.1782    72.4430      .5258     1.2212
 7822.5000     2.1685    68.3616      .5648     1.2141
 7823.0000     2.2012    68.7679      .4533     1.2047
 7823.5000     2.2417    70.2909      .4478     1.2010
 7824.0000     2.2777    69.1253      .4209     1.2332
 7824.5000     2.3193    63.8061      .4433     1.2133
