~VERSION INFORMATION
VERS.                                                 2.0:   CWLS Log ASCII Standard-VERSION 2.0
WRAP.                                                  NO:   One line per depth step
~Well Information Block
STRT.F                                          7564.5000:   Top Depth
STOP.F                                         11357.0000:   Bottom Depth
STEP.F                                             .50000:   Depth Increment
NULL.                                            -999.250:   Null Value
FLD .                                             FREEMAN:   Field Name
WELL.                                     FREEMAN-004-ST1:   NAME
CTRY.                                                 NIG:   COUNTRY
COMP.                                                SPDC:   OPERATOR
SPUD.                                          1998/05/26:   SPUD DATE
UWBI.                                      40000000257502:   UWBI
~PARAMETER INFORMATION (log)
LNAM.                                                                   PUBLIC:   NAME
LTYP.                                                              INTERPRETED:   LOG TYPE
LSRV.                                                               EVALUATION:   SERVICE
LVSN.                                                                        1:   LOG VERSION
BHIS.                                                                       RC:   BRIEF HISTORY
FHIS.                                                          RAW-LAS/PUBLISH:   FULL HISTORY
CN  .        SHELL NIGERIA EXPLORATION AND PRODUCTION COMPANY LIMITED (SNEPCO):   OPERATOR
~Curve Information Block
#MNEM.UNIT                                                             API CODE    No Description
#=========                                                             ========    == ===========
DEPT.F     FT. MD                            00 001 00 00:     1  DEPTH
DEN.G/CC                                                 :     2  Bulk Density                  =rhoz_e
DT.US/F                                                  :     3  Sonic (Compressional)         =dtlf_e
GR.API                                                   :     4  Gamma Ray                     =ecgr_02
NEUT.FRAC                                                :     5  Neutron Porosity              =nphi_02
RES_DEP.OHMM                                             :     6  Resistivity Deep              =aho90_r
~ASCII
# ...
 9150.5000     2.3186   123.8412   111.3409      .4752      .7576
 9151.0000     2.3312   126.1100   106.0118      .4786      .8243
 9151.5000     2.3505   126.5332   104.8076      .4923      .8816
 9152.0000     2.3551   126.3412   102.0161      .4866      .9120
 9152.5000     2.3411   125.9701   104.9475      .4479      .9179
 9153.0000     2.3320   124.9837   108.3303      .4543      .9086
 9153.5000     2.3348   126.0417   112.3671      .4519      .8930
 9154.0000     2.3418   126.3965   111.9586      .4604      .8585
 9154.5000     2.3471   126.3281   111.7451      .4314      .8306
 9155.0000     2.3468   124.7852   116.4441      .4117      .8227
 9155.5000     2.3431   126.9336   119.6907      .4305      .8157
 9156.0000     2.3318   126.4030   121.0180      .4412      .7977
 9156.5000     2.3188   126.5039   119.3899      .4564      .7879
 9157.0000     2.3117   126.5560   113.8629      .4637      .7898
 9157.5000     2.3111   126.2435   113.1968      .4640      .7990
 9158.0000     2.3112   126.3053   107.5641      .4701      .8119
 9158.5000     2.3078   127.3991   108.8116      .4492      .8145
 9159.0000     2.3064   127.1680   109.9453      .4447      .7979
 9159.5000     2.3106   128.4928   110.4823      .4342      .7567
 9160.0000     2.3155   128.5905   112.5661      .4617      .6914
 9160.5000     2.3176   128.5710   106.9483      .4742      .6523
 9161.0000     2.3152   128.1608   107.3482      .4887      .6661
 9161.5000     2.3138   128.2878   113.3102      .4751      .6893
 9162.0000     2.3131   127.4446   115.2170      .4449      .7290
 9162.5000     2.3154   126.4648   121.7625      .4606      .7762
 9163.0000     2.3225   126.1426   113.4327      .4317      .8128
 9163.5000     2.3313   126.0970   111.4854      .4719      .8184
 9164.0000     2.3402   125.9538   109.5212      .4684      .8197
 9164.5000     2.3393   126.2044   112.7407      .5058      .8200
 9165.0000     2.3306   126.6048   116.4450      .4902      .8184
 9165.5000     2.3255   126.7057   109.9537      .4739      .8269
 9166.0000     2.3285   128.1152   109.8479      .4517      .8058
 9166.5000     2.3391   128.0794   105.7287      .4390      .7778
 9167.0000     2.3424   129.3848   108.2321      .4296      .7613
 9167.5000     2.3356   129.4369   103.2934      .4515      .7574
 9168.0000     2.3253   128.7956   103.5577      .4462      .7488
 9168.5000     2.3203   128.2357   104.3485      .4698      .7536
 9169.0000     2.3254   127.3405   105.9094      .5025      .7758
 9169.5000     2.3330   127.1777   101.8370      .5272      .7954
 9170.0000     2.3354   127.4251   100.8774      .5313      .7974
 9170.5000     2.3358   127.3730   108.4430      .4701      .8014
 9171.0000     2.3358   127.4772   110.2195      .4907      .8188
 9171.5000     2.3364   127.3177   107.7521      .4727      .8271
 9172.0000     2.3368   126.8197   103.9840      .4942      .8342
 9172.5000     2.3338   126.6016   107.7982      .4614      .8488
 9173.0000     2.3287   126.8197   110.9549      .4721      .8482
 9173.5000     2.3222   127.3665   110.7148      .4737      .8424
 9174.0000     2.3204   127.6986   111.4842      .4868      .8289
 9174.5000     2.3240   128.4733   112.3384      .4777      .8158
 9175.0000     2.3247   129.4076   112.0526      .4762      .7967
 9175.5000     2.3201   129.5768   111.0889      .4488      .7621
 9176.0000     2.3130   129.0072   107.2342      .4435      .7466
 9176.5000     2.3095   129.1634   105.1439      .4401      .7505
 9177.0000     2.3119   129.0495    99.6382      .4643      .7607
 9177.5000     2.3176   129.2480    96.6546      .4736      .7647
 9178.0000     2.3240   129.7266    95.6713      .4542      .7536
 9178.5000     2.3276   129.7201   101.9201      .4281      .7604
 9179.0000     2.3289   129.5801   104.2381      .4342      .7657
 9179.5000     2.3264   129.2383   105.4874      .4660      .7621
 9180.0000     2.3232   129.4727   104.4590      .4903      .7533
 9180.5000     2.3200   129.6094   107.2442      .4645      .7616
 9181.0000     2.3188   129.3164   103.3091      .4507      .7732
 9181.5000     2.3194   128.8932   101.3293      .4326      .7851
 9182.0000     2.3204   127.9557    98.3982      .4424      .7976
 9182.5000     2.3212   127.3991    98.5465      .4076      .8131
 9183.0000     2.3190   127.7637    97.2462      .4130      .8212
 9183.5000     2.3167   128.5417    98.3485      .3870      .8226
 9184.0000     2.3146   129.0820   100.5402      .4216      .8177
 9184.5000     2.3156   129.6419   103.5371      .4362      .7954
 9185.0000     2.3173   129.9902   102.7338      .4407      .7562
 9185.5000     2.3205   130.0195   110.8068      .4292      .7332
 9186.0000     2.3245   129.9447   113.5787      .4322      .7237
 9186.5000     2.3258   129.5117   118.2159      .4460      .7294
 9187.0000     2.3219   129.1276   113.7159      .4340      .7368
 9187.5000     2.3112   127.9102   109.2869      .4287      .7458
 9188.0000     2.3005   127.0866   110.9305      .4317      .7521
 9188.5000     2.2944   126.4128   107.6913      .4568      .7541
 9189.0000     2.2935   125.2669   109.4751      .4626      .7503
 9189.5000     2.2950   123.7175   107.2353      .4710      .7491
 9190.0000     2.2972   121.6113   107.6343      .4775      .7530
 9190.5000     2.3014   121.2630   105.4446      .4513      .7542
 9191.0000     2.3095   122.4609   101.1267      .4429      .7640
 9191.5000     2.3191   123.4961   101.3814      .4273      .7869
 9192.0000     2.3247   125.1237   101.7141      .4614      .8078
 9192.5000     2.3264   124.8665    98.0700      .4811      .8077
 9193.0000     2.3253   123.8086    96.4779      .4691      .8047
 9193.5000     2.3271   122.7962    99.8081      .4404      .7889
 9194.0000     2.3276   124.7624   102.7090      .4315      .7902
 9194.5000     2.3269   125.3679   102.0201      .4833      .7981
 9195.0000     2.3257   126.4909    99.7228      .5277      .7926
 9195.5000     2.3234   127.3795    95.1512      .5206      .7803
 9196.0000     2.3193   126.4974    95.4636      .5022      .7716
 9196.5000     2.3115   124.9707    94.1394      .4627      .7789
 9197.0000     2.3042   125.2083   102.4886      .4628      .7825
 9197.5000     2.2998   126.3151   104.4344      .4482      .7837
 9198.0000     2.3063   126.0482   105.3235      .4502      .7767
 9198.5000     2.3189   126.3965   103.4809      .4650      .7638
 9199.0000     2.3283   126.8001   105.1029      .4581      .7631
 9199.5000     2.3283   127.1777   108.9085      .4526      .7775
 9200.0000     2.3240   127.8125   110.6548      .4634      .7826
 9200.5000     2.3257   128.2031   111.8805      .4522      .7733
 9201.0000     2.3322   127.8646   107.2478      .4826      .7830
 9201.5000     2.3379   128.5287   108.8963      .4532      .7806
 9202.0000     2.3400   129.2383   104.2953      .4675      .7572
 9202.5000     2.3405   129.8568   107.8806      .4306      .7415
 9203.0000     2.3396   130.7975   103.5546      .4033      .7303
 9203.5000     2.3332   130.0521   105.4483      .3933      .7101
 9204.0000     2.3216   129.5475   103.3761      .4157      .6861
 9204.5000     2.3106   129.3685    98.3491      .4531      .6928
 9205.0000     2.3047   129.4075    98.8412      .5062      .7131
 9205.5000     2.2983   129.1244    96.0556      .5095      .7305
 9206.0000     2.2898   129.8633   102.9006      .5056      .7360
 9206.5000     2.2833   129.7526   105.6353      .4589      .7355
 9207.0000     2.2897   129.4662   111.5003      .4315      .7406
 9207.5000     2.3053   130.0391   110.6317      .4004      .7426
 9208.0000     2.3175   129.4466   111.1766      .4085      .7455
 9208.5000     2.3175   129.1699   109.8913      .4210      .7489
 9209.0000     2.3134   128.7630   112.3441      .4861      .7376
 9209.5000     2.3117   128.2813   110.7585      .4664      .7281
 9210.0000     2.3150   128.0534   110.4905      .4770      .7223
 9210.5000     2.3196   128.0534   105.8930      .4373      .7193
 9211.0000     2.3313   126.8294   102.9861      .4941      .7271
