~VERSION INFORMATION
VERS.                                                 2.0:   CWLS Log ASCII Standard-VERSION 2.0
WRAP.                                                  NO:   One line per depth step
~Well Information Block
STRT.F                                          5633.5000:   Top Depth
STOP.F                                          9740.0000:   Bottom Depth
STEP.F                                             .50000:   Depth Increment
NULL.                                            -999.250:   Null Value
FLD .                                             FREEMAN:   Field Name
WELL.                                     FREEMAN-003-ST1:   NAME
COMP.                                                SPDC:   OPERATOR
UWBI.                                      40000000257402:   UWBI
~PARAMETER INFORMATION (log)
LNAM.                                              PUBLIC:   NAME
LTYP.                                         INTERPRETED:   LOG TYPE
LSRV.                                          EVALUATION:   SERVICE
LVSN.                                                   1:   LOG VERSION
BHIS.                                                  RC:   BRIEF HISTORY
FHIS.                                     RAW-LAS/PUBLISH:   FULL HISTORY
CN  .                                              SNEPCO:   OPERATOR
DATE.                         Wednesday, March 11 2009 07:   RUN DATE
~Curve Information Block
#MNEM.UNIT                                        API CODE    No Description
#=========                                        ========    == ===========
DEPT.F     FT. MD                            00 001 00 00:     1  DEPTH
DEN.G/C3                                                 :     2  Bulk Density                  =rhoz_jr
DT.US/F                                                  :     3  Delta-T Compressional
GR.API                                                   :     4  Gamma Ray                     =ecgr_j
NEU.FRAC                                                 :     5  Neutron Porosity in Limestone =tnph_j
RES_DEP.OHMM                                             :     6  Resistivity Deep              =resd_jr
~ASCII
# ...
 6304.5000     2.0716   164.4000   103.6610      .5042     1.5290
 6305.0000     2.0729   163.5500   105.1920      .5269     1.5474
 6305.5000     2.0768   161.4500   106.3220      .4373     1.5340
 6306.0000     2.0805   160.6500   110.3330      .4464     1.5317
 6306.5000     2.0870   161.2000   109.9890      .4192     1.5398
 6307.0000     2.0974   160.9500   108.2770      .4477     1.5763
 6307.5000     2.1065   160.5500   106.4120      .4506     1.6138
 6308.0000     2.1103   159.6500   107.8330      .4897     1.6113
 6308.5000     2.1077   158.9000   110.5020      .4753     1.6077
 6309.0000     2.1009   159.1000   112.2600      .4903     1.6191
 6309.5000     2.0935   158.6500   111.1230      .4214     1.5937
 6310.0000     2.0883   158.9000   113.1200      .4870     1.5264
 6310.5000     2.0889   158.6000   116.8480      .4702     1.4612
 6311.0000     2.0959   158.5000   117.0590      .6188     1.3636
 6311.5000     2.1030   159.2000   117.5520      .5469     1.2568
 6312.0000     2.1042   160.6000   110.6180      .4877     1.1780
 6312.5000     2.1005   158.8000   107.1470      .4373     1.2299
 6313.0000     2.0956   158.4000   102.1380      .4547     1.3890
 6313.5000     2.0901   158.0000   103.6020      .4454     1.4912
 6314.0000     2.0846   158.4500   109.4430      .5056     1.5179
 6314.5000     2.0824   158.5000   109.4690      .4921     1.5562
 6315.0000     2.0859   157.8500   108.7910      .5453     1.5864
 6315.5000     2.0935   158.5000   105.4940      .4640     1.6120
 6316.0000     2.0977   159.1000   106.6100      .4640     1.6300
 6316.5000     2.0939   160.1000   107.0340      .4330     1.6378
 6317.0000     2.0894   161.7500   104.6080      .5643     1.6180
 6317.5000     2.0916   161.4000   109.8860      .5163     1.6033
 6318.0000     2.0949   160.9000   108.0430      .6711     1.6107
 6318.5000     2.0907   162.0500   112.4120      .5267     1.6317
 6319.0000     2.0844   161.6500   109.2170      .5472     1.6573
 6319.5000     2.0877   161.3500   110.2060      .4490     1.6809
 6320.0000     2.0952   161.1000   106.9320      .4517     1.6806
 6320.5000     2.0955   161.1000   111.0720      .4424     1.6483
 6321.0000     2.0896   160.9000   112.2000      .4232     1.6160
 6321.5000     2.0847   160.6500   111.4030      .3785     1.6109
 6322.0000     2.0845   158.9500   104.7070      .3887     1.6045
 6322.5000     2.0909   157.6000   104.8200      .4046     1.5966
 6323.0000     2.1042   155.1000   104.2790      .4315     1.6094
 6323.5000     2.1191   155.3500   104.7450      .4383     1.6484
 6324.0000     2.1262   155.9000   100.9070      .4745     1.6799
 6324.5000     2.1233   155.6500   103.2140      .4659     1.6702
 6325.0000     2.1181   153.8000   101.8620      .4454     1.6498
 6325.5000     2.1165   154.5500   104.2200      .4361     1.6446
 6326.0000     2.1158   155.2000   105.6530      .4562     1.6173
 6326.5000     2.1103   156.0500   110.9410      .4589     1.5649
 6327.0000     2.1018   158.6000   110.1410      .4764     1.5399
 6327.5000     2.1024   159.2500   105.0950      .4817     1.5697
 6328.0000     2.1188   157.1000   103.1970      .4208     1.6325
 6328.5000     2.1414   155.5000   104.9140      .4192     1.7185
 6329.0000     2.1535   155.5000   106.7050      .4202     1.8000
 6329.5000     2.1461   156.2000   107.2630      .4589     1.8541
 6330.0000     2.1268   157.2000   107.2250      .4509     1.8107
 6330.5000     2.1106   157.7000   106.3270      .4442     1.6765
 6331.0000     2.1060   156.3500   111.2820      .5356     1.5685
 6331.5000     2.1102   156.6500   112.0550      .5127     1.5068
 6332.0000     2.1142   156.1000   109.2300      .4970     1.4264
 6332.5000     2.1101   155.6000   103.0680      .4685     1.1868
 6333.0000     2.0952   156.4000   103.3950      .4714      .8678
 6333.5000     2.0762   158.1000   104.4940      .4873      .6495
 6334.0000     2.0642   158.5500   107.1220      .4652      .5897
 6334.5000     2.0609   159.7000   111.1470      .4452      .5431
 6335.0000     2.0593   161.1000   114.1350      .4580      .4641
 6335.5000     2.0578   161.4000   115.7450      .4629      .4278
 6336.0000     2.0598   162.0500   117.5370      .4910      .4709
 6336.5000     2.0629   161.6000   121.0090      .4804      .5724
 6337.0000     2.0616   161.4000   120.6280      .4388      .6262
 6337.5000     2.0583   161.2000   116.5400      .4936      .6694
 6338.0000     2.0570   161.6000   108.5420      .4734      .7614
 6338.5000     2.0564   161.9000   106.3200      .5663      .8562
 6339.0000     2.0574   161.3000   106.0010      .5037      .8318
 6339.5000     2.0634   160.1000   110.9370      .5331      .7237
 6340.0000     2.0714   159.5500   115.2560      .6768      .6300
 6340.5000     2.0751   159.5000   113.5880      .7805      .6532
 6341.0000     2.0762   159.8500   113.6270      .6952      .8843
 6341.5000     2.0818   160.2000   115.0580      .5060     1.2240
 6342.0000     2.0907   158.9000   113.1890      .4761     1.3521
 6342.5000     2.0990   158.4500   112.6740      .5095     1.3843
 6343.0000     2.1076   158.5000   109.9440      .6085     1.3989
 6343.5000     2.1161   158.8000   108.9390      .6454     1.3521
 6344.0000     2.1195   159.9000   103.2640      .6666     1.1807
 6344.5000     2.1156   161.3000    99.3908      .6577     1.0258
 6345.0000     2.1114   160.0000   106.9850      .5935      .9731
 6345.5000     2.1100   158.3500   111.6510      .5411     1.0718
 6346.0000     2.1078   161.7000   115.5610      .6515     1.2440
 6346.5000     2.1038   165.4000   116.9380      .7041     1.4200
 6347.0000     2.0993   162.6000   115.1670      .5932     1.4970
 6347.5000     2.0965   162.3000   114.7030      .5092     1.4636
 6348.0000     2.0950   160.4000   113.7420      .4181     1.3657
 6348.5000     2.0941   159.7000   109.1150      .4426     1.2998
 6349.0000     2.0941   160.5500   112.3520      .4614     1.2680
 6349.5000     2.0958   162.7000   109.7320      .5193     1.2799
 6350.0000     2.0998   162.9000   112.3820      .5694     1.3146
 6350.5000     2.1044   158.6000   112.5040      .7003     1.3690
 6351.0000     2.1072   157.3500   117.7800      .5959     1.4674
 6351.5000     2.1095   157.9000   114.7610      .4850     1.5389
 6352.0000     2.1113   158.3000   108.5270      .4423     1.5470
 6352.5000     2.1082   158.2000   107.2720      .4887     1.4870
 6353.0000     2.0978   157.7000   108.7140      .5334     1.3196
 6353.5000     2.0857   157.1000   106.6650      .5621     1.2179
 6354.0000     2.0789   157.7000   105.7390      .5715     1.2323
 6354.5000     2.0763   158.0500   107.6050      .6388     1.3465
 6355.0000     2.0753   158.5000   112.0840      .5973     1.4464
 6355.5000     2.0773   159.5000   114.4410      .5582     1.4739
 6356.0000     2.0807   159.6000   113.9380      .5038     1.4894
 6356.5000     2.0794   159.7000   112.0430      .4768     1.4988
 6357.0000     2.0723   159.4000   107.8470      .4912     1.5017
 6357.5000     2.0679   159.3500   111.3480      .5199     1.4520
 6358.0000     2.0730   158.8500   113.0990      .5043     1.3879
 6358.5000     2.0837   158.8000   118.6030      .4647     1.3609
 6359.0000     2.0941   159.1000   114.0600      .4796     1.4138
 6359.5000     2.0995   159.0000   116.3360      .4301     1.4887
 6360.0000     2.0944   159.1000   109.0150      .4699     1.5282
 6360.5000     2.0804   158.9000   114.2760      .4640     1.4765
 6361.0000     2.0683   159.2000   115.9940      .5532     1.3634
 6361.5000     2.0676   158.7000   116.5000      .5266     1.2787
 6362.0000     2.0750   158.4000   114.2640      .6016     1.2591
 6362.5000     2.0835   158.6000   111.7470      .6255     1.3045
 6363.0000     2.0912   158.1000   114.6830      .5689     1.3850
 6363.5000     2.0969   157.6000   111.7050      .5984     1.4610
 6364.0000     2.0989   156.4000   113.9680      .5896     1.5395
 6364.5000     2.0986   156.5000   112.0720      .7608     1.5702
 6365.0000     2.0997   157.3000   113.2890      .6304     1.5618
