~VERSION INFORMATION
VERS.                                                 2.0:   CWLS Log ASCII Standard-VERSION 2.0
WRAP.                                                  NO:   One line per depth step
~Well Information Block
STRT.F                                          7564.5000:   Top Depth
STOP.F                                         11357.0000:   Bottom Depth
STEP.F                                             .50000:   Depth Increment
NULL.                                            -999.250:   Null Value
FLD .                                             FREEMAN:   Field Name
WELL.                                     FREEMAN-004-ST1:   NAME
CTRY.                                                 NIG:   COUNTRY
COMP.                                                SPDC:   OPERATOR
SPUD.                                          1998/05/26:   SPUD DATE
UWBI.                                      40000000257502:   UWBI
~PARAMETER INFORMATION (log)
LNAM.                                                                   PUBLIC:   NAME
LTYP.                                                              INTERPRETED:   LOG TYPE
LSRV.                                                               EVALUATION:   SERVICE
LVSN.                                                                        1:   LOG VERSION
BHIS.                                                                       RC:   BRIEF HISTORY
FHIS.                                                          RAW-LAS/PUBLISH:   FULL HISTORY
CN  .        SHELL NIGERIA EXPLORATION AND PRODUCTION COMPANY LIMITED (SNEPCO):   OPERATOR
~Curve Information Block
#MNEM.UNIT                                                             API CODE    No Description
#=========                                                             ========    == ===========
DEPT.F     FT. MD                            00 001 00 00:     1  DEPTH
DEN.G/CC                                                 :     2  Bulk Density                  =rhoz_e
DT.US/F                                                  :     3  Sonic (Compressional)         =dtlf_e
GR.API                                                   :     4  Gamma Ray                     =ecgr_02
NEUT.FRAC                                                :     5  Neutron Porosity              =nphi_02
RES_DEP.OHMM                                             :     6  Resistivity Deep              =aho90_r
~ASCII
# ...
11285.5000     2.3986   107.8548   203.9856      .4177      .8358
11286.0000     2.3986   107.6986   199.9464      .4053      .8708
11286.5000     2.3986   106.5299   204.5647      .3962      .8998
11287.0000     2.3986   106.7708   212.6455      .3720      .9122
11287.5000     2.3986   106.5560   215.9799      .3867      .9352
11288.0000     2.3986   106.8229   219.3380      .3941      .9621
11288.5000     2.3986   107.3112   213.0002      .4007      .9883
11289.0000     2.3986   108.3073   213.4451      .3884     1.0020
11289.5000     2.3986   110.7943   200.7079      .4041      .9988
11290.0000     2.3986   110.1953   194.0849      .4176      .9820
11290.5000     2.3986   109.3099   179.7119      .4548      .9709
11291.0000     2.3986   108.3561   138.7812      .4774      .9726
11291.5000     2.3986   108.0664   159.8340      .5051      .9959
11292.0000     2.3986   108.8086   160.3641      .5044     1.0049
11292.5000     2.3986   108.4782   162.8430      .5320     1.0146
11293.0000     2.3986   108.7077   162.1489      .5506     1.0287
11293.5000     2.3986   109.4140   164.1429      .5474     1.0408
11294.0000     2.3986   110.9050   163.9649      .5380     1.0449
11294.5000     2.3986   111.9141   165.3048      .5137     1.0410
11295.0000     2.3986   110.8203   166.1302      .5143     1.0103
11295.5000     2.3986   109.6028   169.9960      .5076      .9766
11296.0000     2.3986   109.6582   171.4037      .5202      .9438
11296.5000     2.3986   109.4173   170.6900      .5125      .9237
11297.0000     2.3986   110.6771   165.4574      .4949      .9194
11297.5000     2.3986   113.0338   164.0120      .4832      .9338
11298.0000     2.3986   113.9648   162.1151      .4970      .8988
11298.5000     2.3986   114.7265   162.1151      .5178      .8938
11299.0000     2.3986   115.9505   162.1151      .4967      .8804
11299.5000     2.3986   115.2116   162.1151      .5042      .8653
11300.0000     2.3986   114.8698   162.1151      .4998      .8594
11300.5000     2.3986   114.1309   162.1151      .5048      .8606
11301.0000     2.3986   113.0469   162.1151      .4920      .8650
11301.5000     2.3986   111.7936   162.1151      .5004      .8653
11302.0000     2.3986   111.7122   162.1151      .4985      .8753
11302.5000     2.3986   110.8496   162.1151      .5186      .8918
11303.0000     2.3986   110.8138   162.1151      .5235      .8929
11303.5000     2.3986   109.3083   162.1151      .5511      .8822
11304.0000     2.3986   110.0912   162.1151      .5511      .8722
11304.5000     2.3986   112.6237   162.1151      .5513      .8717
11305.0000     2.3986   111.9206   162.1151      .5511      .8716
11305.5000     2.3986   110.2995   162.1151      .5513      .8729
11306.0000     2.3986   109.1992   162.1151      .5512      .8740
11306.5000     2.3986   109.1015   162.1151      .5511      .8737
11307.0000     2.3986   108.6963   162.1151      .5512      .8806
11307.5000     2.3986   110.1497   162.1151      .5510      .8682
11308.0000     2.3986   110.2409   162.1151      .5511      .8590
11308.5000     2.3986   109.7233   162.1151      .5512      .8688
11309.0000     2.3986   110.5323   162.1151      .5510      .8797
11309.5000     2.3986   110.4688   162.1151      .5511      .8810
11310.0000     2.3986   110.5664   162.1151      .5513      .9036
11310.5000     2.3986   109.8438   162.1151      .5513      .9182
11311.0000     2.3986   108.1120   162.1151      .5511      .9206
11311.5000     2.3986   108.0468   162.1151      .5512      .9005
11312.0000     2.3986   107.8336   162.1151      .5511      .9409
11312.5000     2.3986   109.8893   162.1151      .5512      .9535
11313.0000     2.3986   112.8776   162.1151      .5510      .9422
11313.5000     2.3986   114.6745   162.1151      .5512      .9348
11314.0000     2.3986   114.6126   162.1151      .5510      .9451
11314.5000     2.3986   113.8021   162.1151      .5512      .9410
11315.0000     2.3986   112.6172   162.1151      .5512      .9232
11315.5000     2.3986   110.6478   162.1151      .5512      .9262
11316.0000     2.3986   108.8802   162.1151      .5510      .9347
11316.5000     2.3986   108.6540   162.1151      .5510      .9386
11317.0000     2.3986   108.7240   162.1151      .5510      .9461
11317.5000     2.3986   110.0309   162.1151      .5510      .9565
11318.0000     2.3986   111.6016   162.1151      .5510      .9724
11318.5000     2.3986   111.8945   162.1151      .5510      .9496
11319.0000     2.3986   112.0898   162.1151      .5510      .9464
11319.5000     2.3986   112.1371   162.1151      .5510      .9307
11320.0000     2.3986   111.9271   162.1151      .5510      .9153
11320.5000     2.3986   111.3802   162.1151      .5510      .9120
11321.0000     2.3986   110.4167   162.1151      .5510      .8949
11321.5000     2.3986   109.4141   162.1151      .5510      .9052
11322.0000     2.3986   108.1755   162.1151      .5510      .9440
11322.5000     2.3986   108.2747   162.1151      .5510      .9563
11323.0000     2.3986   108.5531   162.1151      .5510      .9497
11323.5000     2.3986   109.1536   162.1151      .5510      .9323
11324.0000     2.3986   110.7943   162.1151      .5510      .9194
11324.5000     2.3986   111.9531   162.1151      .5510      .9021
11325.0000     2.3986   112.1940   162.1151      .5510      .8892
11325.5000     2.3986   112.4121   162.1151      .5510      .8911
11326.0000     2.3986   112.5033   162.1151      .5510      .9178
11326.5000     2.3986   112.6107   162.1151      .5510      .9432
11327.0000     2.3986   112.6693   162.1151      .5510      .9605
11327.5000     2.3986   111.4306   162.1151      .5510      .9141
11328.0000     2.3986   111.4306   162.1151      .5510      .9020
11328.5000     2.3986   111.4306   162.1151      .5510      .9062
11329.0000     2.3986   111.4306   162.1151      .5510      .9115
11329.5000     2.3986   111.4306   162.1151      .5510      .9165
11330.0000     2.3986   111.4306   162.1151      .5510      .9494
11330.5000     2.3986   111.4306   162.1151      .5510      .9821
11331.0000     2.3986   111.4306   162.1151      .5510      .9942
11331.5000     2.3986   111.4306   162.1151      .5510      .9995
11332.0000     2.3986   111.4306   162.1151      .5510      .9926
11332.5000     2.3986   111.4306   162.1151      .5510      .9849
11333.0000     2.3986   111.4306   162.1151      .5510      .9751
11333.5000     2.3986   111.4306   162.1151      .5510      .9934
11334.0000     2.3986   111.4306   162.1151      .5510      .9882
11334.5000     2.3986   111.4306   162.1151      .5510      .9978
11335.0000     2.3986   111.4306   162.1151      .5510     1.0287
11335.5000     2.3986   111.4306   162.1151      .5510     1.0755
11336.0000     2.3986   111.4306   162.1151      .5510     1.1071
11336.5000     2.3986   111.4306   162.1151      .5510     1.0894
11337.0000     2.3986   111.4306   162.1151      .5510     1.0167
11337.5000     2.3986   111.4306   162.1151      .5510      .9915
11338.0000     2.3986   111.4306   162.1151      .5510      .9452
11338.5000     2.3986   111.4306   162.1151      .5510      .8736
11339.0000     2.3986   111.4306   162.1151      .5510      .8603
11339.5000     2.3986   111.4306   162.1151      .5510      .8792
11340.0000     2.3986   111.4306   162.1151      .5510      .9109
11340.5000     2.3986   111.4306   162.1151      .5510      .9460
11341.0000     2.3986   111.4306   162.1151      .5510      .9924
11341.5000     2.3986   111.4306   162.1151      .5510     1.0203
11342.0000     2.3986   111.4306   162.1151      .5510     1.0274
11342.5000     2.3986   111.4306   162.1151      .5510     1.0168
11343.0000     2.3986   111.4306   162.1151      .5510      .9899
11343.5000     2.3986   111.4306   162.1151      .5510      .9636
11344.0000     2.3986   111.4306   162.1151      .5510      .9446
11344.5000     2.3986   111.4306   162.1151      .5510      .9357
11345.0000     2.3986   111.3281   162.1151      .5510      .9344
11345.5000     2.3986   111.3281   162.1151      .5510      .9374
11346.0000     2.3986   111.3281   162.1151      .5510      .9407
