~VERSION INFORMATION
VERS.                                                 2.0:   CWLS Log ASCII Standard-VERSION 2.0
WRAP.                                                  NO:   One line per depth step
~Well Information Block
STRT.F                                          7564.5000:   Top Depth
STOP.F                                         11357.0000:   Bottom Depth
STEP.F                                             .50000:   Depth Increment
NULL.                                            -999.250:   Null Value
FLD .                                             FREEMAN:   Field Name
WELL.                                     FREEMAN-004-ST1:   NAME
CTRY.                                                 NIG:   COUNTRY
COMP.                                                SPDC:   OPERATOR
SPUD.                                          1998/05/26:   SPUD DATE
UWBI.                                      40000000257502:   UWBI
~PARAMETER INFORMATION (log)
LNAM.                                                                   PUBLIC:   NAME
LTYP.                                                              INTERPRETED:   LOG TYPE
LSRV.                                                               EVALUATION:   SERVICE
LVSN.                                                                        1:   LOG VERSION
BHIS.                                                                       RC:   BRIEF HISTORY
FHIS.                                                          RAW-LAS/PUBLISH:   FULL HISTORY
CN  .        SHELL NIGERIA EXPLORATION AND PRODUCTION COMPANY LIMITED (SNEPCO):   OPERATOR
~Curve Information Block
#MNEM.UNIT                                                             API CODE    No Description
#=========                                                             ========    == ===========
DEPT.F     FT. MD                            00 001 00 00:     1  DEPTH
DEN.G/CC                                                 :     2  Bulk Density                  =rhoz_e
DT.US/F                                                  :     3  Sonic (Compressional)         =dtlf_e
GR.API                                                   :     4  Gamma Ray                     =ecgr_02
NEUT.FRAC                                                :     5  Neutron Porosity              =nphi_02
RES_DEP.OHMM                                             :     6  Resistivity Deep              =aho90_r
~ASCII
# ...
 9394.5000     2.3876   113.0566   113.5339      .4561     1.1057
 9395.0000     2.3850   113.1315   113.3072      .4091     1.1209
 9395.5000     2.3842   113.1445   110.4648      .3989     1.1065
 9396.0000     2.3844   113.6425   107.4592      .4143     1.0899
 9396.5000     2.3824   114.0137   111.2394      .4107     1.0878
 9397.0000     2.3810   113.8867   122.4821      .4194     1.1009
 9397.5000     2.3807   113.3073   126.1572      .3872     1.1321
 9398.0000     2.3823   113.0859   127.1505      .4032     1.1261
 9398.5000     2.3846   112.5293   120.5516      .3930     1.1308
 9399.0000     2.3871   111.7383   118.7754      .4037     1.1434
 9399.5000     2.3891   111.5788   117.0035      .3849     1.1651
 9400.0000     2.3899   111.9108   120.6255      .3812     1.1780
 9400.5000     2.3890   111.7188   122.6476      .4053     1.1604
 9401.0000     2.3881   112.5000   123.7717      .4051     1.1371
 9401.5000     2.3914   112.3145   117.9398      .4045     1.1243
 9402.0000     2.3949   111.8490   122.8663      .3746     1.1134
 9402.5000     2.3965   111.8522   119.9285      .3854     1.1216
 9403.0000     2.3953   111.9043   122.4915      .4006     1.1333
 9403.5000     2.3941   112.3698   119.4915      .4024     1.1365
 9404.0000     2.3933   112.5749   124.6432      .4069     1.1288
 9404.5000     2.3923   111.9141   121.3177      .3809     1.1353
 9405.0000     2.3915   111.3574   119.2552      .3843     1.1488
 9405.5000     2.3906   110.6510   112.3172      .3546     1.1716
 9406.0000     2.3909   110.3027   119.6634      .3775     1.1784
 9406.5000     2.3953   110.4199   118.2960      .3634     1.1939
 9407.0000     2.4011   110.7747   126.8541      .3830     1.2042
 9407.5000     2.3997   110.7031   125.5431      .3848     1.1799
 9408.0000     2.3951   110.9245   130.4310      .3832     1.1616
 9408.5000     2.3925   111.1458   123.5139      .3829     1.1800
 9409.0000     2.3937   110.9212   125.8141      .3726     1.2015
 9409.5000     2.3953   110.8170   125.0787      .3992     1.2139
 9410.0000     2.3977   111.2207   127.7700      .4015     1.2046
 9410.5000     2.4016   110.9342   121.9474      .3788     1.1829
 9411.0000     2.4030   110.8887   117.4701      .3452     1.1724
 9411.5000     2.4021   110.5632   117.0111      .3612     1.1966
 9412.0000     2.4035   110.1758   121.6694      .3792     1.2224
 9412.5000     2.4057   110.1107   127.8306      .3761     1.2516
 9413.0000     2.4046   110.4948   125.8557      .3489     1.2085
 9413.5000     2.4005   110.9440   118.8440      .3361     1.1983
 9414.0000     2.3968   111.3216   118.9325      .3537     1.1883
 9414.5000     2.3961   111.0254   118.8020      .3565     1.1601
 9415.0000     2.3964   110.6152   126.8753      .3698     1.1613
 9415.5000     2.3967   110.4297   129.5609      .3663     1.1845
 9416.0000     2.3939   110.4134   131.3462      .3930     1.1774
 9416.5000     2.3926   110.6641   124.2306      .3788     1.1576
 9417.0000     2.3944   110.8724   117.7315      .3824     1.1616
 9417.5000     2.4000   111.1556   117.7443      .3713     1.1649
 9418.0000     2.4047   111.0417   122.2459      .3743     1.1657
 9418.5000     2.4050   110.8691   126.6601      .3765     1.1526
 9419.0000     2.4018   110.9831   126.1442      .3734     1.1462
 9419.5000     2.3975   111.2500   125.8118      .4003     1.1676
 9420.0000     2.3971   111.1523   116.3975      .4036     1.1477
 9420.5000     2.3988   111.1393   114.8274      .3865     1.1452
 9421.0000     2.3974   111.0547   112.1731      .3950     1.1798
 9421.5000     2.3948   111.0872   116.2109      .3871     1.1992
 9422.0000     2.3958   111.4779   117.4934      .4070     1.1851
 9422.5000     2.3989   111.0352   117.1038      .3982     1.2202
 9423.0000     2.3966   110.6901   118.9547      .4040     1.2644
 9423.5000     2.3926   110.7096   121.6676      .3809     1.2579
 9424.0000     2.3943   110.8724   122.5109      .3689     1.2123
 9424.5000     2.4002   110.8398   121.8824      .3738     1.1641
 9425.0000     2.4021   110.2995   117.9613      .3809     1.1658
 9425.5000     2.3952   110.1563   124.5606      .3947     1.2144
 9426.0000     2.3890   110.1823   128.6729      .4023     1.2930
 9426.5000     2.3909   110.2995   134.4525      .4290     1.3040
 9427.0000     2.3987   110.9147   132.0434      .4132     1.2571
 9427.5000     2.4054   110.9440   125.6689      .3851     1.2529
 9428.0000     2.4049   110.7292   122.5507      .3841     1.2686
 9428.5000     2.4043   110.8984   119.6784      .3782     1.2564
 9429.0000     2.4047   111.1523   123.4658      .3820     1.2479
 9429.5000     2.4052   110.4232   120.1121      .3798     1.2724
 9430.0000     2.4071   110.1628   120.0383      .3825     1.2480
 9430.5000     2.4082   109.2025   121.7308      .4203     1.2247
 9431.0000     2.4074   108.3854   124.3683      .4037     1.2280
 9431.5000     2.4028   108.8086   128.2704      .4039     1.2206
 9432.0000     2.3996   108.7435   121.3022      .3685     1.2556
 9432.5000     2.4013   109.0885   119.1643      .3750     1.2650
 9433.0000     2.4060   109.5996   118.7867      .3677     1.2391
 9433.5000     2.4077   109.2285   123.0292      .3850     1.2331
 9434.0000     2.4057   108.9420   121.9919      .3974     1.2962
 9434.5000     2.3997   108.7533   119.7375      .4090     1.3527
 9435.0000     2.3931   109.6224   116.5172      .4162     1.3255
 9435.5000     2.3897   110.6413   118.9520      .4187     1.3111
 9436.0000     2.3894   110.5436   118.2815      .4032     1.3303
 9436.5000     2.3915   110.6380   124.9763      .3491     1.3378
 9437.0000     2.3920   110.6869   124.4821      .3292     1.3378
 9437.5000     2.3916   110.7422   123.8485      .3424     1.3483
 9438.0000     2.3913   109.5963   120.5955      .3825     1.3774
 9438.5000     2.3922   109.3685   118.8452      .3839     1.3561
 9439.0000     2.3991   109.0592   116.7489      .3740     1.3108
 9439.5000     2.4095   107.9199   111.4414      .3759     1.2666
 9440.0000     2.4188   108.5157   111.5704      .3587     1.2846
 9440.5000     2.4206   108.5938   111.8176      .3694     1.3544
 9441.0000     2.4182   108.5775   113.3182      .3624     1.3829
 9441.5000     2.4111   108.5710   120.6924      .3913     1.4091
 9442.0000     2.3997   109.2545   128.9935      .3843     1.4335
 9442.5000     2.3857   109.5117   128.5908      .3790     1.4586
 9443.0000     2.3706   109.7070   120.9903      .3997     1.4765
 9443.5000     2.3590   109.3620   112.4341      .4018     1.4613
 9444.0000     2.3565   109.6289   113.9964      .4179     1.4340
 9444.5000     2.3595   106.0026   109.6156      .3740     1.4104
 9445.0000     2.3475   109.7656   116.1103      .3852     1.4210
 9445.5000     2.3395   109.3815   116.3159      .3698     1.4213
 9446.0000     2.3585   109.1179   129.3596      .3693     1.4366
 9446.5000     2.3916   109.4206   127.4240      .3515     1.4157
 9447.0000     2.4078   108.9779   127.3116      .3618     1.4089
 9447.5000     2.4034   108.6784   117.1996      .3577     1.4234
 9448.0000     2.4032   109.5931   116.5416      .3515     1.4407
 9448.5000     2.4077   109.8307   116.9375      .3477     1.4282
 9449.0000     2.4029   108.9811   120.1166      .3782     1.3767
 9449.5000     2.3949   108.8021   119.0031      .4069     1.3507
 9450.0000     2.3899   109.0071   122.8289      .4016     1.3619
 9450.5000     2.3926   109.9772   120.9211      .3932     1.3658
 9451.0000     2.3968   111.1100   121.8676      .3677     1.3871
 9451.5000     2.3980   111.4974   120.4230      .3989     1.4290
 9452.0000     2.3983   110.9310   127.6218      .3994     1.4070
 9452.5000     2.3984   110.6543   131.8990      .3991     1.3701
 9453.0000     2.3966   110.0879   128.1566      .3929     1.3585
 9453.5000     2.3895   110.4948   123.0374      .3896     1.3347
 9454.0000     2.3857   110.1042   114.4150      .3913     1.3218
 9454.5000     2.3856   110.0553   116.8057      .3576     1.3068
 9455.0000     2.3832   109.8633   114.4855      .3647     1.3217
