~VERSION INFORMATION
VERS.                                                 2.0:   CWLS Log ASCII Standard-VERSION 2.0
WRAP.                                                  NO:   One line per depth step
~Well Information Block
STRT.F                                          7679.0000:   Top Depth
STOP.F                                          8606.0000:   Bottom Depth
STEP.F                                             .50000:   Depth Increment
NULL.                                            -999.250:   Null Value
FLD .                                             FREEMAN:   Field Name
WELL.                                         FREEMAN-004:   NAME
CTRY.                                                 NIG:   COUNTRY
COMP.                                                SPDC:   OPERATOR
SPUD.                                          1998/05/26:   SPUD DATE
UWBI.                                      40000000257501:   UWBI
~PARAMETER INFORMATION (log)
LNAM.                                              PUBLIC:   NAME
LTYP.                                         INTERPRETED:   LOG TYPE
LSRV.                                          EVALUATION:   SERVICE
LVSN.                                                   1:   LOG VERSION
BHIS.                                                  RC:   BRIEF HISTORY
FHIS.                                     RAW-LAS/PUBLISH:   FULL HISTORY
CN  .                                              SNEPCO:   OPERATOR
~Curve Information Block
#MNEM.UNIT                                        API CODE    No Description
#=========                                        ========    == ===========
DEPT.F     FT. MD                            00 001 00 00:     1  DEPTH
DEN.G/CC                                                 :     2  Bulk Density                  =rhoz_01r
GR.API                                                   :     3  Gamma Ray                     =gr_01
NEUT.FRAC                                                :     4  Neutron Porosity              =tnph_01
RES_DEP.OHMM                                             :     5  Resistivity Deep              =aho90_1r
~ASCII
# ...
 8482.0000     2.2464    64.9802      .3749     1.4886
 8482.5000     2.2595    64.5071      .3690     1.5125
 8483.0000     2.2699    63.3632      .3623     1.5295
 8483.5000     2.2631    64.0521      .3419     1.5713
 8484.0000     2.2433    62.7927      .3482     1.6060
 8484.5000     2.2238    67.4718      .3735     1.4525
 8485.0000     2.2136    71.6263      .3985     1.3141
 8485.5000     2.2142    75.1155      .4129     1.2416
 8486.0000     2.2295    74.3776      .4281     1.1223
 8486.5000     2.2561    77.0876      .4191     1.0056
 8487.0000     2.2819    76.9941      .3868     1.0559
 8487.5000     2.2964    76.8598      .3689     1.1635
 8488.0000     2.3019    74.5703      .3723     1.1432
 8488.5000     2.3058    74.9972      .3773     1.2017
 8489.0000     2.3069    76.4039      .3918     1.3738
 8489.5000     2.3049    75.1687      .4338     1.5132
 8490.0000     2.2978    74.7327      .4435     1.4977
 8490.5000     2.2852    74.4387      .4315     1.4901
 8491.0000     2.2645    73.3207      .3716     1.5880
 8491.5000     2.2401    71.3597      .3566     1.6368
 8492.0000     2.2162    66.0157      .3499     1.6647
 8492.5000     2.1892    61.8977      .3687     1.6961
 8493.0000     2.1568    58.4106      .3782     1.7010
 8493.5000     2.1266    59.7084      .3782     1.7256
 8494.0000     2.1080    57.1803      .3920     1.7431
 8494.5000     2.1061    55.3348      .3752     1.7172
 8495.0000     2.1178    56.6171      .3933     1.6392
 8495.5000     2.1349    57.0929      .3754     1.4732
 8496.0000     2.1394    53.5738      .3634     1.4599
 8496.5000     2.1163    41.3694      .3570     1.6643
 8497.0000     2.0755    33.1061      .3500     1.7171
 8497.5000     2.0452    30.2910      .3573     1.6204
 8498.0000     2.0394    28.9490      .3598     1.5790
 8498.5000     2.0503    27.8657      .3571     1.6075
 8499.0000     2.0624    28.3562      .3686     1.6246
 8499.5000     2.0726    30.0577      .3481     1.6376
 8500.0000     2.0789    33.5385      .3567     1.6558
 8500.5000     2.0746    38.2850      .3740     1.6474
 8501.0000     2.0610    43.4311      .3719     1.5830
 8501.5000     2.0470    49.2041      .3726     1.5060
 8502.0000     2.0542    55.7600      .3627     1.4551
 8502.5000     2.1007    68.4805      .3885     1.3369
 8503.0000     2.1764    78.9319      .4251     1.1893
 8503.5000     2.2538    85.7132      .4400     1.0844
 8504.0000     2.3017    87.4156      .4262     1.0553
 8504.5000     2.3195    87.1252      .4025     1.0325
 8505.0000     2.3223    86.2087      .3989     1.0242
 8505.5000     2.3258    83.9092      .4019     1.0199
 8506.0000     2.3318    83.7262      .3980     1.0077
 8506.5000     2.3315    76.0822      .3863     1.0157
 8507.0000     2.3121    61.8789      .3573     1.1509
 8507.5000     2.2690    47.6262      .3054     1.3679
 8508.0000     2.2115    37.7355      .2650     1.3492
 8508.5000     2.1602    32.5092      .2447     1.3540
 8509.0000     2.1305    31.1650      .2402     1.4014
 8509.5000     2.1281    31.9006      .2571     1.4388
 8510.0000     2.1435    34.8537      .2754     1.4163
 8510.5000     2.1702    42.4486      .3193     1.2194
 8511.0000     2.2146    58.4256      .3948      .9071
 8511.5000     2.2689    74.8078      .4964      .7871
 8512.0000     2.3131    83.4984      .5319      .7992
 8512.5000     2.3330    86.5703      .4728      .7863
 8513.0000     2.3321    88.1818      .4464      .7599
 8513.5000     2.3270    90.0563      .4441      .7572
 8514.0000     2.3227    91.1487      .4686      .7825
 8514.5000     2.3240    89.6582      .4330      .7962
 8515.0000     2.3288    86.8147      .4083      .8029
 8515.5000     2.3352    85.0046      .3938      .8122
 8516.0000     2.3385    84.1578      .4347      .7891
 8516.5000     2.3390    83.1784      .4579      .7709
 8517.0000     2.3326    76.9575      .4533      .7685
 8517.5000     2.3273    77.9974      .4696      .7766
 8518.0000     2.3298    78.3691      .5053      .7799
 8518.5000     2.3361    79.5971      .5680      .7811
 8519.0000     2.3382    79.3762      .5459      .7758
 8519.5000     2.3336    78.6992      .5139      .7262
 8520.0000     2.3290    80.7540      .4700      .7517
 8520.5000     2.3281    81.8941      .4559      .7969
 8521.0000     2.3259    83.0269      .4478      .8033
 8521.5000     2.3230    84.5533      .4340      .7765
 8522.0000     2.3220    83.6279      .4434      .7011
 8522.5000     2.3256    81.6192      .4416      .6547
 8523.0000     2.3350    78.4629      .4335      .6616
 8523.5000     2.3540    78.2023      .4297      .7328
 8524.0000     2.3815    77.7247      .4199      .8779
 8524.5000     2.3997    85.7724      .4238      .9212
 8525.0000     2.3913    87.9264      .4073      .8947
 8525.5000     2.3668    91.0842      .4020      .8836
 8526.0000     2.3516    93.6744      .3888      .8794
 8526.5000     2.3511    95.2293      .3646      .8442
 8527.0000     2.3583    96.7378      .3547      .7767
 8527.5000     2.3577    96.9364      .3742      .7517
 8528.0000     2.3504    94.4800      .3897      .8184
 8528.5000     2.3412    91.3046      .3760      .9290
 8529.0000     2.3366    86.8709      .3938      .9920
 8529.5000     2.3342    86.6505      .3740      .9927
 8530.0000     2.3291    84.9763      .3800     1.0415
 8530.5000     2.3209    86.8560      .3907     1.0723
 8531.0000     2.3194    87.7795      .4319     1.0567
 8531.5000     2.3251    86.4359      .4535     1.0243
 8532.0000     2.3323    85.6777      .4584     1.0122
 8532.5000     2.3344    86.2357      .4450      .9996
 8533.0000     2.3332    87.8968      .4201      .9537
 8533.5000     2.3321    89.1851      .4185      .8739
 8534.0000     2.3271    85.3215      .4767      .8023
 8534.5000     2.3158    82.5491      .4963      .7867
 8535.0000     2.3022    77.8524      .4782      .7895
 8535.5000     2.2953    77.3346      .4550      .7810
 8536.0000     2.2946    76.3483      .4526      .7666
 8536.5000     2.2970    78.9462      .4609      .7522
 8537.0000     2.2989    80.7778      .4732      .7512
 8537.5000     2.3017    84.2721      .4769      .7600
 8538.0000     2.3051    84.2104      .4873      .7606
 8538.5000     2.3092    85.2691      .5040      .7633
 8539.0000     2.3132    85.4306      .4639      .7835
 8539.5000     2.3149    86.3881      .4231      .8023
 8540.0000     2.3110    86.2294      .4507      .8233
 8540.5000     2.3033    85.8522      .5212      .8385
 8541.0000     2.2988    85.6802      .5875      .8268
 8541.5000     2.3025    84.9795      .5500      .8037
 8542.0000     2.3103    85.0866      .5529      .8010
 8542.5000     2.3136    85.7113      .5389      .8276
 8543.0000     2.3131    85.4032      .5505      .8550
 8543.5000     2.3113    85.4563      .4805      .8642
 8544.0000     2.3101    84.4160      .4529      .8785
 8544.5000     2.3071    85.6303      .4575      .8876
 8545.0000     2.3034    87.8798      .4649      .9084
 8545.5000     2.3054    87.3038      .4797      .9088
 8546.0000     2.3109    87.3482      .4907      .8881
 8546.5000     2.3124    91.6657      .4951      .8768
 8547.0000     2.3061    92.6978      .5533      .8921
 8547.5000     2.3000    95.6908      .4882      .9153
 8548.0000     2.2993    91.2685      .4479      .9211
 8548.5000     2.2997    90.9339      .4255      .9051
 8549.0000     2.2979    89.5537      .4686      .8912
 8549.5000     2.2938    90.3029      .4871      .8802
 8550.0000     2.2906    93.2848      .5153      .8729
 8550.5000     2.2910    91.7005      .4512      .8796
 8551.0000     2.2956    91.1274      .4303      .8971
 8551.5000     2.3034    89.6735      .4191      .9133
 8552.0000     2.3108    91.5285      .4550      .9249
 8552.5000     2.3118    92.0453      .4754      .9206
 8553.0000     2.3069    92.5445      .4874      .9188
 8553.5000     2.3003    95.0540      .4574      .9199
 8554.0000     2.2963    96.1097      .4450      .9267
 8554.5000     2.2958    97.4767      .4876      .9063
