~VERSION INFORMATION
VERS.                                                 2.0:   CWLS Log ASCII Standard-VERSION 2.0
WRAP.                                                  NO:   One line per depth step
~Well Information Block
STRT.F                                          7564.5000:   Top Depth
STOP.F                                         11357.0000:   Bottom Depth
STEP.F                                             .50000:   Depth Increment
NULL.                                            -999.250:   Null Value
FLD .                                             FREEMAN:   Field Name
WELL.                                     FREEMAN-004-ST1:   NAME
CTRY.                                                 NIG:   COUNTRY
COMP.                                                SPDC:   OPERATOR
SPUD.                                          1998/05/26:   SPUD DATE
UWBI.                                      40000000257502:   UWBI
~PARAMETER INFORMATION (log)
LNAM.                                                                   PUBLIC:   NAME
LTYP.                                                              INTERPRETED:   LOG TYPE
LSRV.                                                               EVALUATION:   SERVICE
LVSN.                                                                        1:   LOG VERSION
BHIS.                                                                       RC:   BRIEF HISTORY
FHIS.                                                          RAW-LAS/PUBLISH:   FULL HISTORY
CN  .        SHELL NIGERIA EXPLORATION AND PRODUCTION COMPANY LIMITED (SNEPCO):   OPERATOR
~Curve Information Block
#MNEM.UNIT                                                             API CODE    No Description
#=========                                                             ========    == ===========
DEPT.F     FT. MD                            00 001 00 00:     1  DEPTH
DEN.G/CC                                                 :     2  Bulk Density                  =rhoz_e
DT.US/F                                                  :     3  Sonic (Compressional)         =dtlf_e
GR.API                                                   :     4  Gamma Ray                     =ecgr_02
NEUT.FRAC                                                :     5  Neutron Porosity              =nphi_02
RES_DEP.OHMM                                             :     6  Resistivity Deep              =aho90_r
~ASCII
# ...
10797.5000     2.4451   106.0807   125.7497      .4212     1.1187
10798.0000     2.4433   106.7708   131.3180      .4024     1.1217
10798.5000     2.4408   106.3965   133.0662      .3872     1.1298
10799.0000     2.4413   105.0130   128.3389      .3574     1.1525
10799.5000     2.4425   102.9037   126.3995      .3617     1.2147
10800.0000     2.4402   104.0039   120.6511      .3807     1.2254
10800.5000     2.4332   104.2188   117.6712      .4321     1.2103
10801.0000     2.4291   105.0846   109.0360      .4520     1.2065
10801.5000     2.4319   104.6517   111.0264      .4438     1.2097
10802.0000     2.4537   102.4544   114.8142      .4222     1.1820
10802.5000     2.4913   102.0313   119.2505      .4016     1.1321
10803.0000     2.5179   101.2500   116.8588      .3889     1.1405
10803.5000     2.5085   102.2787   113.4721      .3920     1.2328
10804.0000     2.4712   105.9701   109.6520      .4000     1.2478
10804.5000     2.4391   105.2864   109.3107      .4136     1.2680
10805.0000     2.4286   105.7422   110.0975      .4088     1.2847
10805.5000     2.4271   105.4948   111.1774      .4124     1.2717
10806.0000     2.4206   105.4655   108.9155      .4067     1.2280
10806.5000     2.4061   106.7090   108.9062      .4075     1.1863
10807.0000     2.3951   107.7930   115.2623      .3936     1.1332
10807.5000     2.4034   107.4837   115.7667      .3957     1.0420
10808.0000     2.4244   105.9473   116.8536      .3870     1.0169
10808.5000     2.4366   104.4499   113.3216      .3910     1.0966
10809.0000     2.4360   102.7865   111.6517      .3718     1.1975
10809.5000     2.4369   102.1159   112.1917      .4046     1.2859
10810.0000     2.4463   102.5228   113.2763      .3903     1.4006
10810.5000     2.4455   103.4473   117.0303      .3966     1.5408
10811.0000     2.4309   104.9154   118.2907      .3854     1.7932
10811.5000     2.4144   104.1699   123.6100      .4138     2.1526
10812.0000     2.4119   103.9681   126.7038      .4317     1.9864
10812.5000     2.4219   103.2845   124.7340      .4162     1.7735
10813.0000     2.4312   103.8314   120.8797      .4131     1.6059
10813.5000     2.4327   104.3652   117.3892      .4046     1.5280
10814.0000     2.4293   103.1445   119.6862      .3977     1.5562
10814.5000     2.4246   103.5547   123.4059      .3820     1.6631
10815.0000     2.4202   105.1563   130.8147      .3624     1.8236
10815.5000     2.4171   104.6354   131.5555      .3712     2.1411
10816.0000     2.4205   102.3763   131.5294      .3367     2.6498
10816.5000     2.4168   108.4473   127.4958      .3129     3.2996
10817.0000     2.3793   112.2982   121.0362      .2556     3.9409
10817.5000     2.2960   115.0586   104.8420      .2466     4.8829
10818.0000     2.1883   131.7545    83.4468      .2375     6.6874
10818.5000     2.0964   158.5384    66.7163      .2638     8.0354
10819.0000     2.0538   128.8509    70.1620      .2751     6.7305
10819.5000     2.0831   124.7851    87.5039      .3193     4.9118
10820.0000     2.1825   122.8874   109.5977      .3532     4.0038
10820.5000     2.3023   102.7246   115.7763      .3602     3.1694
10821.0000     2.3596   102.9427   113.5657      .3300     2.5306
10821.5000     2.3166   103.1966   102.2957      .2704     2.1300
10822.0000     2.2234   101.4486    88.1139      .2347     2.2588
10822.5000     2.1584    99.5215    71.7220      .2090     3.6057
10823.0000     2.1528    97.7799    57.5282      .2262     7.0606
10823.5000     2.1775    97.1061    53.7916      .2328    12.6377
10824.0000     2.1966   100.4818    62.1770      .2523    18.4565
10824.5000     2.2081    99.7038    74.2701      .2684    20.7685
10825.0000     2.2290   100.0586    87.1714      .2948    12.9919
10825.5000     2.2666   102.2429    90.5803      .3050     6.9506
10826.0000     2.2923   109.9316    94.0993      .2937     4.7417
10826.5000     2.3003   109.0234    89.0346      .2790     3.9623
10827.0000     2.3017   107.4189    84.4238      .3008     3.8516
10827.5000     2.3008   106.5592    80.9571      .2957     3.9347
10828.0000     2.2934   105.6996    86.3117      .3162     4.8054
10828.5000     2.2864   104.8399    96.8641      .3079     7.5168
10829.0000     2.2955   103.9802   100.4667      .3150     8.8609
10829.5000     2.3032   103.1206    98.9217      .2866     6.0495
10830.0000     2.3005   102.2609    97.1014      .2567     5.1728
10830.5000     2.2962   102.3177    95.2863      .2699     4.7701
10831.0000     2.2946   101.4258    93.9190      .2704     4.2517
10831.5000     2.2732   103.7337    88.5725      .2906     4.1785
10832.0000     2.2288   105.4102    84.6949      .3110     4.7778
10832.5000     2.1966   106.2207    87.6889      .3298     6.3364
10833.0000     2.1860   104.9056    91.4808      .3295     8.1462
10833.5000     2.1931   107.8255    94.9848      .3163     9.8647
10834.0000     2.2082   106.7415    97.1205      .3196    11.8407
10834.5000     2.2366   105.4590   101.7465      .3119     8.5875
10835.0000     2.2664   103.1869   107.1057      .2943     5.6092
10835.5000     2.2780   103.7142   107.2491      .2858     4.8517
10836.0000     2.2604   106.8652   102.2140      .2999     4.8460
10836.5000     2.2166   109.4369    94.1932      .3071     4.7331
10837.0000     2.1757   109.3066    86.4978      .3089     4.8180
10837.5000     2.1596   107.1842    81.5246      .2934     5.5473
10838.0000     2.1834   104.9805    87.9402      .2710     6.9254
10838.5000     2.2362   105.2669    96.9480      .2758     8.3845
10839.0000     2.3035   105.1628   107.8843      .3079     7.0445
10839.5000     2.3592   101.8945   113.4188      .3655     4.3812
10840.0000     2.3825   101.7415   112.7297      .4011     2.7135
10840.5000     2.3822   102.3210   110.6258      .4080     2.0168
10841.0000     2.3784   101.6797   109.1489      .3902     1.9635
10841.5000     2.3721   101.5430   104.1570      .3841     2.3975
10842.0000     2.3611   101.4128   105.8127      .3737     2.5817
10842.5000     2.3460   100.4622   100.9388      .3623     3.2678
10843.0000     2.3262   102.6855   101.0600      .3386     4.7833
10843.5000     2.3029   104.7266    95.7143      .3099     7.2562
10844.0000     2.2745   104.7526    92.2284      .3005     8.9761
10844.5000     2.2517   108.6230    91.5182      .2893     8.3753
10845.0000     2.2554   102.6172    95.3033      .3086     6.2313
10845.5000     2.2961    98.7858    94.5211      .3241     4.6818
10846.0000     2.3351    96.4713    93.2029      .3371     4.1825
10846.5000     2.3395    95.6803    88.9841      .3455     4.0849
10847.0000     2.3150    97.8190    90.0599      .3198     3.8737
10847.5000     2.3016   101.4453    89.1653      .3437     3.8946
10848.0000     2.3082   104.4336    94.3623      .3299     4.8142
10848.5000     2.3020   102.9622    97.5847      .3107     5.4252
10849.0000     2.2738   109.0364    97.8115      .2889     5.4637
10849.5000     2.2375   111.2598    89.6448      .2856     5.9795
10850.0000     2.2114   107.4512    82.9849      .3234     6.9254
10850.5000     2.1996   104.7005    78.1613      .3383     7.1750
10851.0000     2.1954   105.0977    80.1706      .3507     6.7526
10851.5000     2.1972   108.2682    82.3108      .3378     6.4879
10852.0000     2.2070   108.7500    88.2274      .3143     6.0879
10852.5000     2.2194   106.7806    95.5812      .3047     5.2466
10853.0000     2.2355   106.6211    99.2263      .2992     4.8630
10853.5000     2.2556   107.6725    99.3947      .3069     4.7826
10854.0000     2.2676   109.4727    91.8692      .2934     3.9345
10854.5000     2.2597   107.4772    92.9356      .2942     3.7105
10855.0000     2.2356   100.3288    88.9152      .3195     3.6969
10855.5000     2.2268    96.0384    90.7641      .3357     3.5235
10856.0000     2.2838    95.4069    92.8894      .3632     3.3932
10856.5000     2.3875    93.4603   108.9910      .3747     3.2380
10857.0000     2.4571    98.8347   120.4240      .4047     3.0286
10857.5000     2.4599   101.9238   131.1046      .4160     2.6243
10858.0000     2.4290   103.0371   133.3255      .4003     2.2079
