~VERSION INFORMATION
VERS.                                                 2.0:   CWLS Log ASCII Standard-VERSION 2.0
WRAP.                                                  NO:   One line per depth step
~Well Information Block
STRT.F                                          5633.5000:   Top Depth
STOP.F                                          9740.0000:   Bottom Depth
STEP.F                                             .50000:   Depth Increment
NULL.                                            -999.250:   Null Value
FLD .                                             FREEMAN:   Field Name
WELL.                                     FREEMAN-003-ST1:   NAME
COMP.                                                SPDC:   OPERATOR
UWBI.                                      40000000257402:   UWBI
~PARAMETER INFORMATION (log)
LNAM.                                              PUBLIC:   NAME
LTYP.                                         INTERPRETED:   LOG TYPE
LSRV.                                          EVALUATION:   SERVICE
LVSN.                                                   1:   LOG VERSION
BHIS.                                                  RC:   BRIEF HISTORY
FHIS.                                     RAW-LAS/PUBLISH:   FULL HISTORY
CN  .                                              SNEPCO:   OPERATOR
DATE.                         Wednesday, March 11 2009 07:   RUN DATE
~Curve Information Block
#MNEM.UNIT                                        API CODE    No Description
#=========                                        ========    == ===========
DEPT.F     FT. MD                            00 001 00 00:     1  DEPTH
DEN.G/C3                                                 :     2  Bulk Density                  =rhoz_jr
DT.US/F                                                  :     3  Delta-T Compressional
GR.API                                                   :     4  Gamma Ray                     =ecgr_j
NEU.FRAC                                                 :     5  Neutron Porosity in Limestone =tnph_j
RES_DEP.OHMM                                             :     6  Resistivity Deep              =resd_jr
~ASCII
# ...
 6792.5000     2.1064   156.7250    81.3263      .5148     1.3465
 6793.0000     2.1089   156.7230    75.7966      .5431     1.3406
 6793.5000     2.1152   156.7210    75.9795      .4843     1.3277
 6794.0000     2.1226   156.7180    75.3369      .4446     1.3007
 6794.5000     2.1233   156.7160    79.2234      .4568     1.3362
 6795.0000     2.1151   156.7140    77.6691      .4451     1.3739
 6795.5000     2.1077   156.7110    79.5542      .4641     1.3543
 6796.0000     2.1122   156.7090    80.4047      .4769     1.3328
 6796.5000     2.1257   156.7070    82.4875      .4896     1.3425
 6797.0000     2.1368   156.7040    87.2855      .5300     1.3581
 6797.5000     2.1416   156.7020    83.3360      .5144     1.3613
 6798.0000     2.1430   156.7000    80.8706      .5150     1.3674
 6798.5000     2.1427   156.6980    77.5853      .4534     1.3883
 6799.0000     2.1430   156.6950    78.6997      .4982     1.3977
 6799.5000     2.1487   156.6930    78.3922      .5338     1.3930
 6800.0000     2.1588   156.6910    77.9897      .4727     1.4072
 6800.5000     2.1624   156.6880    78.7991      .4247     1.4576
 6801.0000     2.1535   156.6860    78.1497      .4312     1.4892
 6801.5000     2.1423   156.6840    79.1597      .5274     1.5188
 6802.0000     2.1442   156.6810    78.0328      .5234     1.5701
 6802.5000     2.1562   156.6790    79.6980      .4515     1.6103
 6803.0000     2.1648   156.6770    82.7682      .4118     1.5745
 6803.5000     2.1653   156.6740    86.7878      .4799     1.4936
 6804.0000     2.1642   156.6720    86.1932      .6245     1.4417
 6804.5000     2.1666   156.6700    84.2213      .5307     1.4245
 6805.0000     2.1679   156.6670    83.7944      .4548     1.4085
 6805.5000     2.1633   156.6650    78.5375      .4204     1.3916
 6806.0000     2.1543   156.6630    81.6349      .4299     1.3693
 6806.5000     2.1464   156.6600    72.9043      .4219     1.3577
 6807.0000     2.1438   156.6580    78.3064      .4440     1.3986
 6807.5000     2.1459   156.6560    74.5484      .4226     1.3938
 6808.0000     2.1468   156.6540    79.0747      .4812     1.3912
 6808.5000     2.1410   156.6510    79.5990      .4439     1.4297
 6809.0000     2.1297   156.6490    76.1253      .4554     1.4821
 6809.5000     2.1227   156.6470    73.3209      .4977     1.4954
 6810.0000     2.1290   156.6440    76.4336      .4219     1.4282
 6810.5000     2.1437   156.6420    79.1778      .4193     1.3956
 6811.0000     2.1523   156.6400    77.9792      .4061     1.3857
 6811.5000     2.1473   156.6370    76.7682      .4554     1.3711
 6812.0000     2.1379   156.6350    77.7838      .5541     1.3531
 6812.5000     2.1342   156.6330    78.5951      .7084     1.3422
 6813.0000     2.1351   156.6300    76.0279      .7085     1.3545
 6813.5000     2.1370   156.6280    79.7838      .6017     1.3407
 6814.0000     2.1410   156.6260    81.2214      .4597     1.3333
 6814.5000     2.1478   156.6230    83.1903      .4530     1.3471
 6815.0000     2.1502   156.6210    80.6869      .5146     1.3602
 6815.5000     2.1455   156.6190    79.1534      .6813     1.3498
 6816.0000     2.1434   156.6160    81.9521      .5704     1.3065
 6816.5000     2.1483   156.6140    83.5710      .5263     1.2910
 6817.0000     2.1506   156.6120    85.3635      .4915     1.3171
 6817.5000     2.1413   156.6100    80.5198      .4791     1.3295
 6818.0000     2.1268   156.6070    82.2984      .4882     1.3295
 6818.5000     2.1210   156.6050    83.7142      .4958     1.3290
 6819.0000     2.1272   156.6030    86.4306      .6988     1.2906
 6819.5000     2.1382   156.6000    87.9565      .6307     1.2681
 6820.0000     2.1456   156.5980    78.1177      .6870     1.3174
 6820.5000     2.1459   156.5960    73.9291      .6192     1.3494
 6821.0000     2.1405   156.5930    70.1871      .6483     1.3253
 6821.5000     2.1351   156.5910    78.8591      .6491     1.3093
 6822.0000     2.1374   156.5890    82.0677      .6865     1.3032
 6822.5000     2.1470   156.5860    83.9178      .5656     1.3188
 6823.0000     2.1555   156.5840    81.3715      .4367     1.3437
 6823.5000     2.1565   156.5820    80.0676      .4361     1.3289
 6824.0000     2.1511   156.5790    78.5910      .4696     1.3302
 6824.5000     2.1448   156.5770    76.3348      .5645     1.3180
 6825.0000     2.1435   156.5750    78.5825      .5008     1.3140
 6825.5000     2.1492   156.5720    77.2639      .4779     1.3258
 6826.0000     2.1542   156.5700    78.9987      .4457     1.3392
 6826.5000     2.1512   156.5680    79.1929      .4323     1.3482
 6827.0000     2.1444   156.5660    76.3480      .4328     1.3242
 6827.5000     2.1411   156.5630    77.5101      .4471     1.2927
 6828.0000     2.1383   156.5610    77.6839      .4850     1.3212
 6828.5000     2.1326   156.5590    79.3498      .4818     1.3155
 6829.0000     2.1263   156.5560    79.3596      .4711     1.2733
 6829.5000     2.1181   156.5540    78.3794      .4607     1.2931
 6830.0000     2.1037   156.5520    73.8476      .4725     1.2978
 6830.5000     2.0910   156.5490    70.5331      .4798     1.2393
 6831.0000     2.0919   156.5470    71.9210      .4311     1.2118
 6831.5000     2.0965   156.5450    72.9631      .3964     1.2597
 6832.0000     2.0877   156.5420    75.5700      .3798     1.2764
 6832.5000     2.0738   156.5400    74.7796      .4027     1.2340
 6833.0000     2.0786   156.5380    73.9607      .4578     1.2157
 6833.5000     2.0975   156.5350    72.9729      .4849     1.2502
 6834.0000     2.1021   156.6000    72.3530      .4995     1.3156
 6834.5000     2.0854   155.9000    76.6230      .5226     1.2822
 6835.0000     2.0688   155.2000    75.0549      .5061     1.2175
 6835.5000     2.0637   157.4000    77.1363      .4588     1.2083
 6836.0000     2.0595   155.0000    73.4365      .4345     1.2085
 6836.5000     2.0530   154.0000    72.6861      .4889     1.1576
 6837.0000     2.0490   154.0000    67.4074      .5431     1.2241
 6837.5000     2.0432   152.8000    61.1126      .7231     1.3254
 6838.0000     2.0341   149.5000    58.6089      .5499     1.1799
 6838.5000     2.0319   144.1000    60.7555      .4772     1.0724
 6839.0000     2.0396   146.1000    60.3340      .4277     1.1369
 6839.5000     2.0448   145.4000    59.4491      .4498     1.1798
 6840.0000     2.0434   143.8000    60.8925      .5085     1.1350
 6840.5000     2.0459   145.3000    63.7641      .4867     1.1453
 6841.0000     2.0509   143.0000    61.4728      .4915     1.1407
 6841.5000     2.0455   142.8000    62.8752      .4551     1.0984
 6842.0000     2.0317   142.3000    60.3321      .4426     1.0728
 6842.5000     2.0271   143.6000    64.3611      .4262     1.0865
 6843.0000     2.0402   143.9000    67.7180      .4248     1.0922
 6843.5000     2.0561   143.6000    69.8383      .4220     1.1285
 6844.0000     2.0570   143.6000    69.0494      .4045     1.1527
 6844.5000     2.0434   144.8000    64.6758      .3560     1.1519
 6845.0000     2.0290   144.1000    61.9676      .3438     1.1562
 6845.5000     2.0223   143.4000    61.5828      .3731     1.0994
 6846.0000     2.0236   141.0000    66.7347      .4640     1.0522
 6846.5000     2.0307   141.2000    75.6889      .5522     1.0914
 6847.0000     2.0378   139.2000    77.3705      .6862     1.1544
 6847.5000     2.0384   139.8000    68.4895      .5519     1.1833
 6848.0000     2.0344   133.5000    59.6254      .4603     1.1655
 6848.5000     2.0314   136.1000    56.6704      .3967     1.1264
 6849.0000     2.0287   126.1000    59.1592      .4651     1.0962
 6849.5000     2.0246   127.7000    56.3826      .4820     1.0811
 6850.0000     2.0226   130.5000    59.4881      .6218     1.0698
 6850.5000     2.0246   133.8000    61.5367      .5847     1.0975
 6851.0000     2.0263   134.6000    63.6009      .5523     1.1326
 6851.5000     2.0235   137.9000    62.3298      .5760     1.0951
 6852.0000     2.0180   137.9000    58.4897      .4915     1.0726
 6852.5000     2.0099   141.3000    60.1840      .4923     1.1541
 6853.0000     2.0002   141.3000    58.6049      .4337     1.1929
