~VERSION INFORMATION
VERS.                                                 2.0:   CWLS Log ASCII Standard-VERSION 2.0
WRAP.                                                  NO:   One line per depth step
~Well Information Block
STRT.F                                          7679.0000:   Top Depth
STOP.F                                          8606.0000:   Bottom Depth
STEP.F                                             .50000:   Depth Increment
NULL.                                            -999.250:   Null Value
FLD .                                             FREEMAN:   Field Name
WELL.                                         FREEMAN-004:   NAME
CTRY.                                                 NIG:   COUNTRY
COMP.                                                SPDC:   OPERATOR
SPUD.                                          1998/05/26:   SPUD DATE
UWBI.                                      40000000257501:   UWBI
~PARAMETER INFORMATION (log)
LNAM.                                              PUBLIC:   NAME
LTYP.                                         INTERPRETED:   LOG TYPE
LSRV.                                          EVALUATION:   SERVICE
LVSN.                                                   1:   LOG VERSION
BHIS.                                                  RC:   BRIEF HISTORY
FHIS.                                     RAW-LAS/PUBLISH:   FULL HISTORY
CN  .                                              SNEPCO:   OPERATOR
~Curve Information Block
#MNEM.UNIT                                        API CODE    No Description
#=========                                        ========    == ===========
DEPT.F     FT. MD                            00 001 00 00:     1  DEPTH
DEN.G/CC                                                 :     2  Bulk Density                  =rhoz_01r
GR.API                                                   :     3  Gamma Ray                     =gr_01
NEUT.FRAC                                                :     4  Neutron Porosity              =tnph_01
RES_DEP.OHMM                                             :     5  Resistivity Deep              =aho90_1r
~ASCII
# ...
 7971.0000     2.2509    73.8148      .6262      .7152
 7971.5000     2.2416    72.9974      .6792      .7220
 7972.0000     2.2436    72.5148      .5820      .7465
 7972.5000     2.2712    79.1852      .5543      .8116
 7973.0000     2.3054    82.0937      .5231      .8842
 7973.5000     2.3203    81.4445      .5350      .8734
 7974.0000     2.3082    77.1682      .4670      .8541
 7974.5000     2.2932    74.7093      .4630      .8598
 7975.0000     2.2822    78.4753      .4804      .8615
 7975.5000     2.2734    78.5431      .4946      .8617
 7976.0000     2.2655    82.5682      .5001      .8630
 7976.5000     2.2602    80.7905      .4863      .8661
 7977.0000     2.2596    83.1296      .4479      .8696
 7977.5000     2.2636    80.6064      .4492      .8961
 7978.0000     2.2729    82.7072      .4320      .9495
 7978.5000     2.2858    82.4714      .4358      .9936
 7979.0000     2.2935    79.9136      .4170     1.0241
 7979.5000     2.2905    77.5396      .4316     1.0217
 7980.0000     2.2769    76.3869      .4616      .9654
 7980.5000     2.2599    77.4995      .5210      .9117
 7981.0000     2.2511    81.7370      .4708      .8576
 7981.5000     2.2523    82.0867      .4756      .8263
 7982.0000     2.2532    80.6284      .4539      .8116
 7982.5000     2.2480    79.9913      .4701      .8052
 7983.0000     2.2405    81.8795      .4447      .8066
 7983.5000     2.2390    81.2010      .4679      .8117
 7984.0000     2.2389    78.9218      .4961      .8138
 7984.5000     2.2329    78.9963      .5095      .8186
 7985.0000     2.2267    80.6430      .5246      .8295
 7985.5000     2.2272    83.0066      .5349      .8396
 7986.0000     2.2314    78.2702      .5229      .8447
 7986.5000     2.2337    75.8321      .4799      .8409
 7987.0000     2.2333    76.3404      .4788      .8438
 7987.5000     2.2366    79.6846      .5136      .8505
 7988.0000     2.2424    82.2370      .5885      .8616
 7988.5000     2.2534    81.4944      .5490      .8721
 7989.0000     2.2632    80.1925      .4970      .8649
 7989.5000     2.2608    78.9668      .4832      .8561
 7990.0000     2.2396    77.5317      .5020      .8388
 7990.5000     2.2217    79.4213      .5301      .8371
 7991.0000     2.2247    81.3463      .5432      .8822
 7991.5000     2.2451    86.7663      .5365      .9585
 7992.0000     2.2631    91.6691      .5366     1.0460
 7992.5000     2.2696    91.3338      .5137     1.1161
 7993.0000     2.2697    87.5895      .4616     1.1485
 7993.5000     2.2694    83.7410      .4265     1.1565
 7994.0000     2.2736    83.3680      .4120     1.1516
 7994.5000     2.2798    87.7495      .4090     1.1204
 7995.0000     2.2801    90.6712      .4234     1.0904
 7995.5000     2.2766    88.6367      .4301     1.0725
 7996.0000     2.2745    86.4952      .4451     1.0627
 7996.5000     2.2801    86.0612      .4463     1.0603
 7997.0000     2.2873    85.6297      .4436     1.0531
 7997.5000     2.2892    87.5296      .4773     1.0492
 7998.0000     2.2900    84.0083      .4341     1.0311
 7998.5000     2.2916    83.6130      .4346     1.0199
 7999.0000     2.2964    87.1976      .4029     1.0732
 7999.5000     2.2990    90.2515      .4381     1.0846
 8000.0000     2.2944    88.4057      .4515     1.0203
 8000.5000     2.2838    85.8881      .4889      .9874
 8001.0000     2.2785    85.3825      .4691     1.0044
 8001.5000     2.2816    83.6612      .5158     1.0033
 8002.0000     2.2867    84.0008      .5095     1.0080
 8002.5000     2.2829    85.3203      .4801     1.0327
 8003.0000     2.2740    87.8903      .4631     1.0279
 8003.5000     2.2683    86.0984      .4601      .9873
 8004.0000     2.2630    82.7567      .5049      .9679
 8004.5000     2.2500    81.5957      .5432      .9834
 8005.0000     2.2314    78.4326      .6540      .9945
 8005.5000     2.2288    75.5513      .5985     1.0059
 8006.0000     2.2487    74.8866      .6109     1.0080
 8006.5000     2.2685    78.6957      .5386      .9684
 8007.0000     2.2762    79.6708      .5889      .9289
 8007.5000     2.2740    79.7830      .5138      .9357
 8008.0000     2.2751    80.5642      .4724      .9436
 8008.5000     2.2752    81.7399      .4403      .9392
 8009.0000     2.2699    81.4526      .4843      .9470
 8009.5000     2.2636    80.3628      .5119      .9954
 8010.0000     2.2542    80.9145      .5689     1.0967
 8010.5000     2.2394    81.4232      .5098     1.0891
 8011.0000     2.2287    81.2915      .5288      .9916
 8011.5000     2.2337    78.5020      .4959      .9474
 8012.0000     2.2515    77.0781      .4965      .9363
 8012.5000     2.2649    78.0603      .5027      .9739
 8013.0000     2.2638    82.6739      .5249     1.0317
 8013.5000     2.2609    84.7063      .5206     1.0468
 8014.0000     2.2665    84.3899      .4940      .9849
 8014.5000     2.2752    80.2350      .4658      .9862
 8015.0000     2.2849    76.6359      .4201     1.0997
 8015.5000     2.2967    74.5959      .3879     1.2097
 8016.0000     2.3055    79.6451      .3999     1.1494
 8016.5000     2.3047    81.5297      .4090     1.0657
 8017.0000     2.2938    80.4209      .4340     1.0138
 8017.5000     2.2811    77.9069      .4477     1.0007
 8018.0000     2.2736    78.0116      .4302      .9934
 8018.5000     2.2733    79.4752      .4352      .9941
 8019.0000     2.2824    78.3070      .4387      .9992
 8019.5000     2.2967    76.0387      .4638      .9861
 8020.0000     2.3065    74.8076      .4663      .9974
 8020.5000     2.3079    74.3021      .4391     1.0328
 8021.0000     2.3062    76.1750      .4251     1.0605
 8021.5000     2.3077    78.5823      .4515     1.0696
 8022.0000     2.3090    83.4980      .4590     1.0478
 8022.5000     2.3028    88.6302      .4474     1.0423
 8023.0000     2.2930    89.8022      .4391     1.0275
 8023.5000     2.2875    88.3157      .4443      .9826
 8024.0000     2.2875    81.7422      .4534      .9281
 8024.5000     2.2887    81.5500      .4534      .8659
 8025.0000     2.2861    81.5796      .4778      .8084
 8025.5000     2.2774    83.9333      .5098      .7420
 8026.0000     2.2652    80.8279      .5097      .7118
 8026.5000     2.2553    80.1271      .4739      .7107
 8027.0000     2.2501    79.4265      .4958      .7168
 8027.5000     2.2496    79.4894      .5223      .7633
 8028.0000     2.2484    79.8562      .5350      .8256
 8028.5000     2.2478    78.2588      .4793      .8995
 8029.0000     2.2503    80.0323      .5145      .9275
 8029.5000     2.2542    79.7784      .5510      .9469
 8030.0000     2.2530    83.1926      .5291      .9323
 8030.5000     2.2429    83.1192      .4737      .8873
 8031.0000     2.2323    82.2840      .4589      .7843
 8031.5000     2.2321    81.7838      .4869      .6994
 8032.0000     2.2450    83.8756      .4950      .7665
 8032.5000     2.2644    84.5973      .5025      .9407
 8033.0000     2.2792    85.5519      .5137     1.0008
 8033.5000     2.2851    82.0942      .5666     1.0026
 8034.0000     2.2841    82.2625      .5141     1.0161
 8034.5000     2.2796    80.9446      .4706     1.0057
 8035.0000     2.2735    83.3562      .4661      .9862
 8035.5000     2.2630    80.6243      .5017      .9978
 8036.0000     2.2519    80.6232      .4981     1.0319
 8036.5000     2.2456    80.6445      .5196     1.0619
 8037.0000     2.2452    82.7312      .4978     1.0303
 8037.5000     2.2489    84.1926      .5387      .9893
 8038.0000     2.2525    83.8671      .5501      .9614
 8038.5000     2.2594    82.0629      .5441      .7811
 8039.0000     2.2709    83.2599      .5216      .6305
 8039.5000     2.2805    85.4352      .4742      .7454
 8040.0000     2.2841    85.4798      .4819      .8818
 8040.5000     2.2812    80.1763      .4817      .9091
 8041.0000     2.2734    78.9571      .5099      .9857
 8041.5000     2.2616    81.0841      .4807     1.0490
 8042.0000     2.2526    85.6200      .5170     1.0274
 8042.5000     2.2537    85.4374      .5383      .9369
 8043.0000     2.2609    86.2094      .5436      .8328
 8043.5000     2.2628    83.6179      .5137      .8142
