~VERSION INFORMATION
VERS.                                                 2.0:   CWLS Log ASCII Standard-VERSION 2.0
WRAP.                                                  NO:   One line per depth step
~Well Information Block
STRT.F                                          7564.5000:   Top Depth
STOP.F                                         11357.0000:   Bottom Depth
STEP.F                                             .50000:   Depth Increment
NULL.                                            -999.250:   Null Value
FLD .                                             FREEMAN:   Field Name
WELL.                                     FREEMAN-004-ST1:   NAME
CTRY.                                                 NIG:   COUNTRY
COMP.                                                SPDC:   OPERATOR
SPUD.                                          1998/05/26:   SPUD DATE
UWBI.                                      40000000257502:   UWBI
~PARAMETER INFORMATION (log)
LNAM.                                                                   PUBLIC:   NAME
LTYP.                                                              INTERPRETED:   LOG TYPE
LSRV.                                                               EVALUATION:   SERVICE
LVSN.                                                                        1:   LOG VERSION
BHIS.                                                                       RC:   BRIEF HISTORY
FHIS.                                                          RAW-LAS/PUBLISH:   FULL HISTORY
CN  .        SHELL NIGERIA EXPLORATION AND PRODUCTION COMPANY LIMITED (SNEPCO):   OPERATOR
~Curve Information Block
#MNEM.UNIT                                                             API CODE    No Description
#=========                                                             ========    == ===========
DEPT.F     FT. MD                            00 001 00 00:     1  DEPTH
DEN.G/CC                                                 :     2  Bulk Density                  =rhoz_e
DT.US/F                                                  :     3  Sonic (Compressional)         =dtlf_e
GR.API                                                   :     4  Gamma Ray                     =ecgr_02
NEUT.FRAC                                                :     5  Neutron Porosity              =nphi_02
RES_DEP.OHMM                                             :     6  Resistivity Deep              =aho90_r
~ASCII
# ...
 8174.5000     2.2752   133.8346   103.3227      .5199      .9160
 8175.0000     2.2769   133.8705   105.9653      .4928      .9218
 8175.5000     2.2737   134.3131   107.6504      .4556      .9255
 8176.0000     2.2662   134.9544   112.0677      .4508      .9121
 8176.5000     2.2609   135.5632   111.6602      .4579      .9019
 8177.0000     2.2586   135.2604   111.0645      .4570      .9026
 8177.5000     2.2594   134.4890   108.8629      .4443      .9301
 8178.0000     2.2592   135.0033   104.4975      .4324      .9477
 8178.5000     2.2618   133.1803   104.0487      .4509      .9645
 8179.0000     2.2684   134.3131   105.5244      .4988      .9905
 8179.5000     2.2697   131.9597   109.7753      .5405      .9747
 8180.0000     2.2565   132.1419   110.0882      .5659      .9242
 8180.5000     2.2442   129.6224   107.5930      .5095      .8902
 8181.0000     2.2553   130.5697   106.5563      .4782      .8916
 8181.5000     2.2687   131.1133   104.1987      .4221      .9126
 8182.0000     2.2823   129.6159   109.2967      .4184      .9439
 8182.5000     2.2912   130.2278   104.5964      .3964      .9854
 8183.0000     2.3080   130.7585   106.4364      .4171      .9932
 8183.5000     2.2978   128.2422   104.1227      .4601      .9898
 8184.0000     2.2587   129.7429   108.1637      .4769      .9888
 8184.5000     2.2386   129.9023   113.0101      .4863     1.0029
 8185.0000     2.2732   128.0697   115.0679      .4548     1.0271
 8185.5000     2.3209   127.3958   109.3739      .4505     1.0319
 8186.0000     2.3310   126.8001   112.1876      .4484     1.0285
 8186.5000     2.3005   127.7213   113.7942      .4359     1.0123
 8187.0000     2.2824   129.2773   116.2838      .4497      .9721
 8187.5000     2.2877   130.8431   110.2293      .4648      .9746
 8188.0000     2.2918   130.4395   105.2974      .4955      .9979
 8188.5000     2.2912   129.5540   108.4649      .4592     1.0195
 8189.0000     2.2895   129.6387   103.5345      .4138     1.0256
 8189.5000     2.2958   130.0260   105.2787      .4391     1.0384
 8190.0000     2.2931   132.6237   104.4064      .4752     1.0616
 8190.5000     2.2797   132.9069   110.4507      .4816     1.0684
 8191.0000     2.2633   132.1484   111.2039      .4599     1.0659
 8191.5000     2.2509   131.5690   111.6305      .4707     1.0659
 8192.0000     2.2461   130.8398   110.7640      .4828     1.0725
 8192.5000     2.2467   130.5859   108.1461      .4680     1.0503
 8193.0000     2.2511   131.7383   108.2232      .4493     1.0158
 8193.5000     2.2556   132.9753   105.9966      .4684      .9835
 8194.0000     2.2568   133.4473   110.6690      .4814      .9618
 8194.5000     2.2611   132.5000   107.2408      .4673      .9560
 8195.0000     2.2703   131.6374   105.1272      .4298      .9732
 8195.5000     2.2759   132.3080   103.4589      .4182      .9832
 8196.0000     2.2743   132.2298   107.2421      .4287      .9507
 8196.5000     2.2677   133.0371   118.0430      .4355      .9050
 8197.0000     2.2668   133.6979   120.3730      .4572      .8865
 8197.5000     2.2719   133.5287   118.0815      .4797      .9033
 8198.0000     2.2785   132.9460   118.0484      .4831      .9718
 8198.5000     2.2859   130.0032   113.9046      .4485     1.0592
 8199.0000     2.2941   126.3346   112.4708      .4116     1.1370
 8199.5000     2.3051   123.9551   108.3244      .4204     1.1679
 8200.0000     2.3141   122.2428   111.4631      .4158     1.2130
 8200.5000     2.3179   121.9792   114.2931      .4135     1.2273
 8201.0000     2.3194   121.9173   113.8409      .3996     1.2536
 8201.5000     2.3244   121.4258   113.7654      .3995     1.2780
 8202.0000     2.3311   123.1641   114.0557      .4123     1.3118
 8202.5000     2.3359   123.5417   111.1975      .4234     1.3221
 8203.0000     2.3368   123.9388   104.7882      .4194     1.3664
 8203.5000     2.3385   123.3561   103.7227      .4044     1.4010
 8204.0000     2.3363   124.6680   103.2476      .4022     1.4499
 8204.5000     2.3223   127.2461   110.1535      .4041     1.4199
 8205.0000     2.2990   131.4030   106.5041      .4116     1.3595
 8205.5000     2.2795   129.6061   110.2397      .4150     1.3035
 8206.0000     2.2778   129.5443   109.0709      .4012     1.2352
 8206.5000     2.2861   129.4922   110.2764      .4136     1.1315
 8207.0000     2.2976   129.6582   106.9106      .3944     1.0445
 8207.5000     2.3016   128.3268   102.3560      .4130     1.0249
 8208.0000     2.3017   128.5482    99.2084      .4099     1.0255
 8208.5000     2.3064   128.1282    99.1314      .4316     1.0319
 8209.0000     2.3163   126.5755   103.0678      .4340     1.0382
 8209.5000     2.3194   124.8600   112.3348      .4607     1.0551
 8210.0000     2.3155   124.9772   111.4363      .4791     1.0677
 8210.5000     2.3077   128.4375   104.8572      .4860     1.1047
 8211.0000     2.2850   133.0990    87.2465      .3805     1.4306
 8211.5000     2.2100   138.3757    74.6249      .2361     2.7998
 8212.0000     2.0826   141.6927    64.4945      .1133     4.6779
 8212.5000     1.9568   143.7467    56.8869      .0995     5.3372
 8213.0000     1.8798   142.0313    56.3182      .1568     6.2936
 8213.5000     1.8675   141.2322    65.0314      .2466     4.7103
 8214.0000     1.9162   141.2322    82.0861      .3485     2.4599
 8214.5000     2.0137   141.2322    94.6419      .4004     1.5625
 8215.0000     2.1115   140.8366    90.7227      .3814     1.5723
 8215.5000     2.1509   143.6393    79.4850      .3091     2.6233
 8216.0000     2.1302   147.9265    71.1573      .2739     4.3991
 8216.5000     2.0946   150.4004    69.1656      .2695     4.5994
 8217.0000     2.0653   150.4019    70.8170      .2695     4.5954
 8217.5000     2.0224   150.4019    65.9553      .2200     5.6360
 8218.0000     1.9558   150.4019    59.6423      .1767     8.1014
 8218.5000     1.8880   148.1185    53.4582      .1657     7.0728
 8219.0000     1.8631   147.3340    57.5395      .2133     4.1518
 8219.5000     1.8866   145.8854    64.8053      .2623     2.5545
 8220.0000     1.9451   141.7936    72.9526      .3376     2.2582
 8220.5000     2.0176   138.5938    78.5904      .3616     1.6922
 8221.0000     2.1025   135.4460    89.7617      .4345     1.1987
 8221.5000     2.1870   130.9310    97.1841      .4401     1.0223
 8222.0000     2.2463   131.4388    99.9140      .4772      .9302
 8222.5000     2.2725   129.7982    99.8098      .4633      .9127
 8223.0000     2.2774   130.3516   102.1295      .4499      .8840
 8223.5000     2.2801   130.6217   103.9658      .4650      .8745
 8224.0000     2.2836   131.6602   101.1250      .4695      .8334
 8224.5000     2.2848   133.8053    96.0586      .5032      .7953
 8225.0000     2.2842   134.7363    96.0709      .5019      .7998
 8225.5000     2.2810   135.5011    94.4166      .4824      .8651
 8226.0000     2.2773   135.4056   100.6062      .4732      .8978
 8226.5000     2.2682   135.3101   104.8388      .4657      .8934
 8227.0000     2.2604   135.2146   105.1074      .4706      .8981
 8227.5000     2.2715   133.7826   103.0606      .4537      .9000
 8228.0000     2.2907   134.3034    97.7975      .4504      .8912
 8228.5000     2.2987   133.5417    98.2400      .4657      .8818
 8229.0000     2.2921   133.2747    97.7123      .4580      .8838
 8229.5000     2.2799   133.3138    99.1614      .4604      .8891
 8230.0000     2.2744   132.6172    97.8963      .4364      .8860
 8230.5000     2.2779   132.8255   102.4020      .4659      .8721
 8231.0000     2.2901   132.6693   100.6640      .4262      .8875
 8231.5000     2.3007   132.5586   107.9696      .4529      .9153
 8232.0000     2.2962   133.4440   107.5956      .4157      .8720
 8232.5000     2.2824   131.2858   106.5526      .4700      .8059
 8233.0000     2.2742   131.5169   104.1189      .4699      .7823
 8233.5000     2.2729   130.3613   101.7546      .5143      .8005
 8234.0000     2.2727   128.7402   102.9427      .4568      .8355
 8234.5000     2.2764   128.0567   105.7289      .4235      .9013
 8235.0000     2.2827   125.5729   110.8845      .4028      .9157
