~VERSION INFORMATION
VERS.                                                 2.0:   CWLS Log ASCII Standard-VERSION 2.0
WRAP.                                                  NO:   One line per depth step
~Well Information Block
STRT.F                                          5633.5000:   Top Depth
STOP.F                                          9740.0000:   Bottom Depth
STEP.F                                             .50000:   Depth Increment
NULL.                                            -999.250:   Null Value
FLD .                                             FREEMAN:   Field Name
WELL.                                     FREEMAN-003-ST1:   NAME
COMP.                                                SPDC:   OPERATOR
UWBI.                                      40000000257402:   UWBI
~PARAMETER INFORMATION (log)
LNAM.                                              PUBLIC:   NAME
LTYP.                                         INTERPRETED:   LOG TYPE
LSRV.                                          EVALUATION:   SERVICE
LVSN.                                                   1:   LOG VERSION
BHIS.                                                  RC:   BRIEF HISTORY
FHIS.                                     RAW-LAS/PUBLISH:   FULL HISTORY
CN  .                                              SNEPCO:   OPERATOR
DATE.                         Wednesday, March 11 2009 07:   RUN DATE
~Curve Information Block
#MNEM.UNIT                                        API CODE    No Description
#=========                                        ========    == ===========
DEPT.F     FT. MD                            00 001 00 00:     1  DEPTH
DEN.G/C3                                                 :     2  Bulk Density                  =rhoz_jr
DT.US/F                                                  :     3  Delta-T Compressional
GR.API                                                   :     4  Gamma Ray                     =ecgr_j
NEU.FRAC                                                 :     5  Neutron Porosity in Limestone =tnph_j
RES_DEP.OHMM                                             :     6  Resistivity Deep              =resd_jr
~ASCII
# ...
 7585.5000     2.1726   132.4000    86.3565      .7399      .9419
 7586.0000     2.1716   132.4000    87.7699      .7817      .9347
 7586.5000     2.1775   130.7000    88.4753      .5931     1.0151
 7587.0000     2.1832   129.7000    88.8862      .5242     1.0826
 7587.5000     2.1834   138.1000    86.3249      .4896     1.0653
 7588.0000     2.1836   138.8000    88.5275      .6498     1.0739
 7588.5000     2.1890   139.3000    87.1866      .7229     1.0854
 7589.0000     2.1952   139.0000    90.7480      .8386     1.0568
 7589.5000     2.1938   147.8000    84.1071      .6640     1.0197
 7590.0000     2.1871   141.7000    82.2165      .6570     1.0536
 7590.5000     2.1841   140.6000    79.2739      .5453     1.1221
 7591.0000     2.1882   140.4000    77.2115      .5286     1.0654
 7591.5000     2.1963   138.5000    81.2519      .4273     1.0049
 7592.0000     2.2036   139.0000    89.4158      .4219     1.0095
 7592.5000     2.2080   134.8000    96.3921      .4439     1.0317
 7593.0000     2.2110   136.6000    92.2572      .4850     1.0675
 7593.5000     2.2148   139.1000    86.5591      .5243     1.1245
 7594.0000     2.2172   140.6000    85.9556      .6907     1.1416
 7594.5000     2.2130   142.6000    84.4539      .7378     1.0623
 7595.0000     2.2015   142.6000    81.8108      .6502      .9796
 7595.5000     2.1886   143.1000    81.5102      .5201      .9601
 7596.0000     2.1824   142.0000    84.1357      .5080      .9843
 7596.5000     2.1860   141.8000    86.7571      .5661      .9974
 7597.0000     2.1952   141.5000    90.3436      .6129      .9938
 7597.5000     2.1993   139.8000    92.6574      .5953     1.0025
 7598.0000     2.1921   142.2000    88.7549      .4661     1.0324
 7598.5000     2.1820   141.8000    87.7937      .4869     1.0528
 7599.0000     2.1817   144.3000    89.3068      .5012     1.0561
 7599.5000     2.1878   144.9000    91.2187      .5751     1.0639
 7600.0000     2.1850   146.3000    87.2854      .5897     1.0487
 7600.5000     2.1699   146.4000    79.7354      .4972     1.0103
 7601.0000     2.1556   147.3000    82.2874      .5812      .9795
 7601.5000     2.1517   145.5000    83.9651      .6652      .9671
 7602.0000     2.1549   147.9000    86.0604      .8590      .9500
 7602.5000     2.1604   145.7000    82.7568      .7104      .9297
 7603.0000     2.1656   148.2000    82.3333      .5960      .9168
 7603.5000     2.1685   146.0000    80.6197      .6826      .8967
 7604.0000     2.1671   148.4000    79.9235      .6810      .8605
 7604.5000     2.1636   146.4000    80.3238      .7224      .8355
 7605.0000     2.1627   147.5000    83.3677      .6554      .8175
 7605.5000     2.1654   147.5000    87.8605      .6087      .7006
 7606.0000     2.1675   146.2000    92.4941      .7328      .6123
 7606.5000     2.1653   146.2000    93.3796      .7136      .6490
 7607.0000     2.1605   145.7000    93.7207      .6361      .7177
 7607.5000     2.1583   147.6000    89.0072      .6730      .7783
 7608.0000     2.1588   146.3000    89.3123      .6508      .8240
 7608.5000     2.1591   146.6000    86.8226      .8638      .8693
 7609.0000     2.1601   145.3000    85.3852      .6014      .9059
 7609.5000     2.1659   146.7000    81.5474      .5335      .9303
 7610.0000     2.1746   145.9000    78.7185      .4938      .9343
 7610.5000     2.1796   146.1000    78.4587      .7269      .9198
 7611.0000     2.1782   146.7000    80.8095      .7688      .9096
 7611.5000     2.1749   146.0000    82.6142      .6243      .9101
 7612.0000     2.1741   146.0000    82.4862      .5718      .9193
 7612.5000     2.1755   146.2000    83.3958      .5217      .9406
 7613.0000     2.1784   146.8000    88.7151      .5650      .9573
 7613.5000     2.1835   146.7000    92.2566      .5661      .9430
 7614.0000     2.1882   146.6000    93.5964      .5936      .9252
 7614.5000     2.1865   146.0000    86.7103      .6478      .9177
 7615.0000     2.1795   145.6000    85.8511      .6708      .9193
 7615.5000     2.1746   145.4000    88.3158      .6329      .9396
 7616.0000     2.1734   145.4000    90.9004      .5525      .9468
 7616.5000     2.1718   146.5000    93.1820      .5268      .9345
 7617.0000     2.1688   147.2000    91.1848      .5640      .9384
 7617.5000     2.1683   147.0000    88.4974      .6411      .9510
 7618.0000     2.1711   146.2000    86.4127      .6214      .9577
 7618.5000     2.1746   145.8000    83.5098      .6173      .9653
 7619.0000     2.1779   146.4000    82.5756      .5110      .9704
 7619.5000     2.1815   146.4000    87.7899      .4470      .9677
 7620.0000     2.1843   146.4000    86.0443      .4165      .9683
 7620.5000     2.1849   146.8000    88.3764      .5719      .9718
 7621.0000     2.1822   145.9000    84.5823      .7265      .9654
 7621.5000     2.1781   145.7000    85.1099      .9363      .9590
 7622.0000     2.1765   146.3000    87.1228      .9465      .9674
 7622.5000     2.1800   146.6000    90.0254      .8692      .9697
 7623.0000     2.1869   147.0000    91.8120      .6594      .9551
 7623.5000     2.1929   146.9000    90.6224      .5530      .9413
 7624.0000     2.1971   147.1000    86.3866      .6705      .9377
 7624.5000     2.1997   146.7000    83.6771      .6218      .9380
 7625.0000     2.1986   146.1000    89.0764      .6886      .9381
 7625.5000     2.1930   146.1000    92.6136      .5771      .9420
 7626.0000     2.1882   146.4000    90.9857      .5967      .9387
 7626.5000     2.1915   145.5000    84.6602      .5984      .9336
 7627.0000     2.2017   147.3000    82.0007      .6103      .9298
 7627.5000     2.2086   137.8000    79.8155      .4813      .9264
 7628.0000     2.2064   144.7000    83.2986      .4273      .9218
 7628.5000     2.1990   145.2000    80.3654      .3653      .9175
 7629.0000     2.1930   145.2000    80.8454      .3751      .9076
 7629.5000     2.1918   145.0000    79.4001      .4330      .8985
 7630.0000     2.1952   150.9000    82.1738      .4679      .9082
 7630.5000     2.1986   145.3000    87.0644      .6678      .9270
 7631.0000     2.1977   145.5000    90.5870      .6804      .9347
 7631.5000     2.1921   145.8000    89.1631      .6441      .9322
 7632.0000     2.1856   145.5000    90.7785      .5661      .9345
 7632.5000     2.1823   143.5000    89.6088      .6107      .9419
 7633.0000     2.1870   143.5000    88.0658      .6743      .9621
 7633.5000     2.2045   141.2000    82.7681      .7784      .9809
 7634.0000     2.2295   142.3000    81.2759     1.0511      .9698
 7634.5000     2.2417   143.4000    81.3980     1.1258      .9593
 7635.0000     2.2266   145.1000    82.1002     1.0455      .9513
 7635.5000     2.1943   145.6000    85.5963      .9973      .9502
 7636.0000     2.1695   144.0000    89.5252      .8865      .9538
 7636.5000     2.1641   140.9000    90.0729      .7871      .9569
 7637.0000     2.1705   131.9000    89.9665      .6039      .9593
 7637.5000     2.1766   131.7000    80.4615      .5555      .9635
 7638.0000     2.1791   130.0000    80.4898      .5686      .9847
 7638.5000     2.1843   131.6000    78.7964      .5633     1.0523
 7639.0000     2.1980   129.3000    82.6408      .4894     1.1449
 7639.5000     2.2146   137.6000    85.4146      .5519     1.2612
 7640.0000     2.2219   133.9000    89.9842      .6016     1.3966
 7640.5000     2.2181   130.9000    92.6216      .7053     1.4790
 7641.0000     2.2150   129.4000    92.2135      .6048     1.5136
 7641.5000     2.2205   129.4000    86.5433      .5230     1.4966
 7642.0000     2.2297   132.6000    86.2243      .4167     1.4140
 7642.5000     2.2348   137.8000    83.1778      .3991     1.2879
 7643.0000     2.2349   137.3000    83.1851      .4127     1.2325
 7643.5000     2.2318   138.9000    78.3176      .5049     1.1767
 7644.0000     2.2219   146.3000    78.4159      .5072     1.0534
 7644.5000     2.2014   146.5000    87.6045      .5864      .9522
 7645.0000     2.1777   143.6000    97.5156      .5546      .9138
 7645.5000     2.1661   143.6000    95.0896      .6187      .8810
 7646.0000     2.1733   146.4000    87.3345      .6161      .8419
