~VERSION INFORMATION
VERS.                                                 2.0:   CWLS Log ASCII Standard-VERSION 2.0
WRAP.                                                  NO:   One line per depth step
~Well Information Block
STRT.F                                          7679.0000:   Top Depth
STOP.F                                          8606.0000:   Bottom Depth
STEP.F                                             .50000:   Depth Increment
NULL.                                            -999.250:   Null Value
FLD .                                             FREEMAN:   Field Name
WELL.                                         FREEMAN-004:   NAME
CTRY.                                                 NIG:   COUNTRY
COMP.                                                SPDC:   OPERATOR
SPUD.                                          1998/05/26:   SPUD DATE
UWBI.                                      40000000257501:   UWBI
~PARAMETER INFORMATION (log)
LNAM.                                              PUBLIC:   NAME
LTYP.                                         INTERPRETED:   LOG TYPE
LSRV.                                          EVALUATION:   SERVICE
LVSN.                                                   1:   LOG VERSION
BHIS.                                                  RC:   BRIEF HISTORY
FHIS.                                     RAW-LAS/PUBLISH:   FULL HISTORY
CN  .                                              SNEPCO:   OPERATOR
~Curve Information Block
#MNEM.UNIT                                        API CODE    No Description
#=========                                        ========    == ===========
DEPT.F     FT. MD                            00 001 00 00:     1  DEPTH
DEN.G/CC                                                 :     2  Bulk Density                  =rhoz_01r
GR.API                                                   :     3  Gamma Ray                     =gr_01
NEUT.FRAC                                                :     4  Neutron Porosity              =tnph_01
RES_DEP.OHMM                                             :     5  Resistivity Deep              =aho90_1r
~ASCII
# ...
 8117.0000     2.2246    82.2545      .5885      .4770
 8117.5000     2.2199    82.5422      .5113      .5274
 8118.0000     2.2273    81.4737      .5434      .6261
 8118.5000     2.2490    83.3107      .5024      .7199
 8119.0000     2.2648    80.4823      .5124      .7726
 8119.5000     2.2690    81.8230      .5371      .8000
 8120.0000     2.2608    81.6417      .5693      .8065
 8120.5000     2.2503    81.1607      .6631      .8048
 8121.0000     2.2472    80.3113      .5619      .8015
 8121.5000     2.2541    79.2554      .4674      .7950
 8122.0000     2.2664    80.1008      .4382      .7843
 8122.5000     2.2736    78.1478      .4636      .7819
 8123.0000     2.2704    79.0970      .4961      .7746
 8123.5000     2.2610    78.1383      .4829      .7680
 8124.0000     2.2510    76.7907      .4871      .7774
 8124.5000     2.2465    75.3401      .5418      .7907
 8125.0000     2.2476    75.7624      .6767      .7728
 8125.5000     2.2500    77.2833      .6965      .7280
 8126.0000     2.2516    80.9704      .6302      .6709
 8126.5000     2.2482    82.1552      .6082      .6440
 8127.0000     2.2414    84.7380      .5731      .6765
 8127.5000     2.2292    82.0477      .5430      .7177
 8128.0000     2.2182    81.2982      .5624      .7516
 8128.5000     2.2108    76.7803      .6304      .7659
 8129.0000     2.2072    73.6951      .6389      .7751
 8129.5000     2.2043    72.7883      .5740      .8088
 8130.0000     2.2015    76.1729      .5161      .8342
 8130.5000     2.2026    80.1228      .5255      .8485
 8131.0000     2.2111    82.7767      .4962      .8206
 8131.5000     2.2210    81.8197      .4530      .7933
 8132.0000     2.2255    77.5907      .4538      .7727
 8132.5000     2.2218    79.3619      .4767      .7535
 8133.0000     2.2198    79.6933      .5017      .7992
 8133.5000     2.2277    82.7345      .4960      .8616
 8134.0000     2.2307    80.7805      .5098      .8902
 8134.5000     2.2246    80.0504      .5405      .8469
 8135.0000     2.2134    79.4331      .5505      .8182
 8135.5000     2.2125    80.6950      .5428      .8324
 8136.0000     2.2194    83.0091      .5349      .8230
 8136.5000     2.2245    85.2148      .5285      .8268
 8137.0000     2.2213    85.5622      .4868      .7919
 8137.5000     2.2199    82.1478      .5041      .6676
 8138.0000     2.2331    81.6950      .4653      .5512
 8138.5000     2.2579    83.8261      .5150      .5346
 8139.0000     2.2741    87.5101      .5091      .5385
 8139.5000     2.2704    88.3467      .5840      .5987
 8140.0000     2.2559    84.8582      .5984      .7562
 8140.5000     2.2473    81.6517      .5387      .9181
 8141.0000     2.2574    81.5336      .5175     1.0161
 8141.5000     2.2904    79.2476      .5126     1.1063
 8142.0000     2.3359    79.7249      .5333     1.0961
 8142.5000     2.3574    80.7620      .5719     1.0229
 8143.0000     2.3342    83.8537      .6396      .9597
 8143.5000     2.2948    78.3570      .6850      .9238
 8144.0000     2.2701    75.7402      .6032      .8377
 8144.5000     2.2678    76.6194      .5712      .7777
 8145.0000     2.2652    83.9957      .5133      .8011
 8145.5000     2.2587    88.6773      .4767      .8413
 8146.0000     2.2546    87.5970      .4528      .8003
 8146.5000     2.2535    85.5246      .4521      .6695
 8147.0000     2.2543    84.0013      .4609      .4853
 8147.5000     2.2555    83.7643      .5109      .3838
 8148.0000     2.2584    83.6139      .5294      .3327
 8148.5000     2.2561    84.5378      .4843      .3040
 8149.0000     2.2523    84.3482      .4157      .3982
 8149.5000     2.2472    83.1388      .4193      .5631
 8150.0000     2.2456    83.6071      .4792      .6127
 8150.5000     2.2462    84.5998      .5469      .6870
 8151.0000     2.2473    85.0922      .5374      .7582
 8151.5000     2.2507    82.4889      .4823      .8759
 8152.0000     2.2549    81.6595      .4421      .8723
 8152.5000     2.2596    81.0617      .4777      .8413
 8153.0000     2.2620    80.7121      .5115      .8404
 8153.5000     2.2632    83.3954      .5132      .8340
 8154.0000     2.2645    84.1506      .5296      .8363
 8154.5000     2.2648    86.1481      .5079      .8513
 8155.0000     2.2640    86.9417      .5118      .8803
 8155.5000     2.2624    87.1619      .4818      .8918
 8156.0000     2.2602    86.4585      .4766      .8872
 8156.5000     2.2525    85.1691      .5054      .8534
 8157.0000     2.2458    87.2420      .5022      .7961
 8157.5000     2.2438    91.0923      .5045      .7645
 8158.0000     2.2489    94.7705      .5208      .8394
 8158.5000     2.2538    91.3642      .5865      .9104
 8159.0000     2.2579    87.1975      .5901      .9265
 8159.5000     2.2633    85.1737      .5163      .8830
 8160.0000     2.2696    87.5109      .4611      .8599
 8160.5000     2.2762    89.2053      .4594      .8512
 8161.0000     2.2785    92.4056      .4711      .7918
 8161.5000     2.2748    88.8689      .4928      .7612
 8162.0000     2.2674    87.0619      .5165      .8134
 8162.5000     2.2642    82.8906      .5339      .8678
 8163.0000     2.2687    80.7708      .5400      .8687
 8163.5000     2.2764    79.4084      .5375      .8604
 8164.0000     2.2823    75.9557      .5235      .8467
 8164.5000     2.2866    75.4966      .5343      .8476
 8165.0000     2.2899    75.5958      .5551      .8458
 8165.5000     2.2881    75.5005      .5734      .8341
 8166.0000     2.2723    74.1768      .5308      .8281
 8166.5000     2.2506    72.8502      .5379      .8220
 8167.0000     2.2350    71.5276      .5130      .8188
 8167.5000     2.2410    72.5147      .5378      .8196
 8168.0000     2.2585    71.2529      .5546      .8209
 8168.5000     2.2724    72.9171      .5630      .8259
 8169.0000     2.2758    72.3390      .5450      .8256
 8169.5000     2.2708    77.2364      .5360      .8211
 8170.0000     2.2620    79.9038      .4952      .8172
 8170.5000     2.2560    81.6418      .5065      .8121
 8171.0000     2.2554    80.5801      .4905      .8101
 8171.5000     2.2587    79.2794      .5206      .8178
 8172.0000     2.2581    77.4767      .5036      .8316
 8172.5000     2.2567    72.7370      .4630      .8500
 8173.0000     2.2614    69.8867      .4386      .8647
 8173.5000     2.2694    70.8180      .4427      .8845
 8174.0000     2.2700    75.0034      .4662      .8831
 8174.5000     2.2663    79.7922      .4887      .8617
 8175.0000     2.2617    83.2475      .5153      .8411
 8175.5000     2.2615    84.7255      .5774      .8239
 8176.0000     2.2654    82.2873      .5867      .8106
 8176.5000     2.2692    81.7671      .5941      .8191
 8177.0000     2.2731    82.3531      .5583      .8286
 8177.5000     2.2732    81.9349      .5674      .8323
 8178.0000     2.2737    83.6373      .5802      .8443
 8178.5000     2.2757    81.1092      .5133      .8470
 8179.0000     2.2729    80.1152      .4705      .8464
 8179.5000     2.2618    75.4411      .4431      .8334
 8180.0000     2.2499    76.3924      .4564      .8138
 8180.5000     2.2457    77.9831      .4459      .8129
 8181.0000     2.2493    77.8580      .4432      .8266
 8181.5000     2.2608    77.4761      .4882      .8427
 8182.0000     2.2845    76.8516      .5337      .8541
 8182.5000     2.3073    79.6981      .5439      .8593
 8183.0000     2.3140    79.8321      .5180      .8671
 8183.5000     2.3011    80.5564      .5150      .8831
 8184.0000     2.2790    80.9489      .4708      .8952
 8184.5000     2.2652    79.1810      .4587      .9182
 8185.0000     2.2741    80.6442      .4539      .9521
 8185.5000     2.2993    80.7389      .4866      .9849
 8186.0000     2.3285    82.7366      .5111      .9892
 8186.5000     2.3409    82.3841      .5050      .9769
 8187.0000     2.3397    79.3350      .4726      .9632
 8187.5000     2.3327    81.6397      .4391      .9760
 8188.0000     2.3258    82.2173      .4441     1.0012
 8188.5000     2.3264    85.7859      .4355     1.0206
 8189.0000     2.3210    84.7939      .4787     1.0216
 8189.5000     2.3075    85.8472      .5070      .9954
