~VERSION INFORMATION
VERS.                                                 2.0:   CWLS Log ASCII Standard-VERSION 2.0
WRAP.                                                  NO:   One line per depth step
~Well Information Block
STRT.F                                          7679.0000:   Top Depth
STOP.F                                          8606.0000:   Bottom Depth
STEP.F                                             .50000:   Depth Increment
NULL.                                            -999.250:   Null Value
FLD .                                             FREEMAN:   Field Name
WELL.                                         FREEMAN-004:   NAME
CTRY.                                                 NIG:   COUNTRY
COMP.                                                SPDC:   OPERATOR
SPUD.                                          1998/05/26:   SPUD DATE
UWBI.                                      40000000257501:   UWBI
~PARAMETER INFORMATION (log)
LNAM.                                              PUBLIC:   NAME
LTYP.                                         INTERPRETED:   LOG TYPE
LSRV.                                          EVALUATION:   SERVICE
LVSN.                                                   1:   LOG VERSION
BHIS.                                                  RC:   BRIEF HISTORY
FHIS.                                     RAW-LAS/PUBLISH:   FULL HISTORY
CN  .                                              SNEPCO:   OPERATOR
~Curve Information Block
#MNEM.UNIT                                        API CODE    No Description
#=========                                        ========    == ===========
DEPT.F     FT. MD                            00 001 00 00:     1  DEPTH
DEN.G/CC                                                 :     2  Bulk Density                  =rhoz_01r
GR.API                                                   :     3  Gamma Ray                     =gr_01
NEUT.FRAC                                                :     4  Neutron Porosity              =tnph_01
RES_DEP.OHMM                                             :     5  Resistivity Deep              =aho90_1r
~ASCII
# ...
 7898.0000     2.2450    79.8784      .4317     1.0766
 7898.5000     2.2346    74.8194      .4880     1.1705
 7899.0000     2.2353    72.8156      .5137     1.2748
 7899.5000     2.2471    75.7071      .4877     1.5138
 7900.0000     2.2596    80.0579      .4322     2.1595
 7900.5000     2.2660    85.3681      .4093     2.7728
 7901.0000     2.2732    88.5508      .3932     3.2052
 7901.5000     2.2762    89.6619      .3839     3.9959
 7902.0000     2.2776    88.9416      .3998     5.5832
 7902.5000     2.2781    83.7520      .4164     7.6259
 7903.0000     2.2868    80.8170      .4461     6.8793
 7903.5000     2.2978    78.6348      .4211     5.0187
 7904.0000     2.3034    78.8697      .4100     4.1846
 7904.5000     2.3014    78.2795      .3750     5.7142
 7905.0000     2.2941    78.9419      .4019    16.9773
 7905.5000     2.2891    80.4322      .4147    48.5303
 7906.0000     2.2825    81.1919      .4455     7.8928
 7906.5000     2.2759    81.6563      .4785      .8957
 7907.0000     2.2673    81.3697      .5544      .2418
 7907.5000     2.2750    80.4329      .6566      .0996
 7908.0000     2.3160    77.2790      .6320      .0966
 7908.5000     2.3773    72.6860      .5089      .1950
 7909.0000     2.4101    73.7735      .4488      .4313
 7909.5000     2.3824    74.5426      .4557      .5909
 7910.0000     2.3205    75.9932      .4637      .7685
 7910.5000     2.2688    78.2946      .4477     1.2087
 7911.0000     2.2426    81.2405      .4165      .9788
 7911.5000     2.2290    84.8905      .4819      .6807
 7912.0000     2.2185    83.6550      .5042      .5238
 7912.5000     2.2113    82.0756      .5587      .4829
 7913.0000     2.2098    80.9139      .5228      .5095
 7913.5000     2.2144    80.4064      .5235      .5931
 7914.0000     2.2279    79.1232      .5228      .6855
 7914.5000     2.2380    77.6995      .5531      .7748
 7915.0000     2.2405    76.7979      .5026      .8165
 7915.5000     2.2330    80.5145      .4800      .8334
 7916.0000     2.2314    82.6124      .4346      .8588
 7916.5000     2.2391    83.8608      .4264      .8660
 7917.0000     2.2440    77.4428      .4325      .8729
 7917.5000     2.2383    73.6238      .4559      .8629
 7918.0000     2.2269    72.5366      .4887      .8908
 7918.5000     2.2322    75.0883      .4773      .8643
 7919.0000     2.2470    78.0709      .4919      .8205
 7919.5000     2.2514    79.1742      .4992      .7933
 7920.0000     2.2425    79.5455      .5438      .7589
 7920.5000     2.2282    77.2655      .5199      .7612
 7921.0000     2.2248    76.1480      .5993      .7756
 7921.5000     2.2296    77.7812      .5715      .7803
 7922.0000     2.2413    78.4207      .5066      .7762
 7922.5000     2.2457    79.5532      .4460      .7256
 7923.0000     2.2341    77.2782      .4466      .6537
 7923.5000     2.2260    74.1967      .4510      .6998
 7924.0000     2.2316    72.0028      .4808      .8021
 7924.5000     2.2387    71.3958      .4560      .8543
 7925.0000     2.2296    73.4960      .4611      .8252
 7925.5000     2.2221    75.1426      .4369      .8479
 7926.0000     2.2319    75.8307      .4576      .8758
 7926.5000     2.2494    75.7034      .5027      .8619
 7927.0000     2.2547    76.4609      .5616      .8323
 7927.5000     2.2503    77.0439      .6150      .8391
 7928.0000     2.2539    76.4408      .5323      .8584
 7928.5000     2.2689    78.6635      .4842      .8807
 7929.0000     2.2774    82.0917      .4451      .9017
 7929.5000     2.2730    85.7711      .4368      .8813
 7930.0000     2.2568    83.4670      .4733      .8956
 7930.5000     2.2401    82.4294      .4954     1.0326
 7931.0000     2.2282    80.7942      .4825     1.0216
 7931.5000     2.2201    78.8786      .5043      .9409
 7932.0000     2.2136    77.8431      .5565      .8844
 7932.5000     2.2148    79.3289      .5668      .8566
 7933.0000     2.2305    78.5683      .5644      .8560
 7933.5000     2.2491    76.8926      .5643      .8643
 7934.0000     2.2594    71.7915      .5893      .8751
 7934.5000     2.2542    69.2599      .5623      .8859
 7935.0000     2.2487    69.7493      .5064      .8854
 7935.5000     2.2431    71.3610      .4720      .8832
 7936.0000     2.2361    73.5731      .4709      .8791
 7936.5000     2.2242    69.3226      .4903      .8766
 7937.0000     2.2035    69.6851      .5208      .8816
 7937.5000     2.1890    67.2691      .4888      .8887
 7938.0000     2.1967    68.2414      .4856      .8913
 7938.5000     2.2192    71.1837      .4899      .9027
 7939.0000     2.2399    74.3422      .5204      .9043
 7939.5000     2.2445    74.2967      .5684      .9032
 7940.0000     2.2381    74.7888      .6062      .8823
 7940.5000     2.2311    72.0721      .6343      .8543
 7941.0000     2.2245    71.2142      .6233      .8331
 7941.5000     2.2236    70.3313      .5179      .8177
 7942.0000     2.2157    71.2883      .4765      .8117
 7942.5000     2.2082    74.7862      .4524      .8079
 7943.0000     2.2095    77.9817      .4561      .8088
 7943.5000     2.2200    77.4652      .4429      .8200
 7944.0000     2.2296    78.2035      .4664      .8206
 7944.5000     2.2341    77.6176      .4962      .8189
 7945.0000     2.2412    76.3958      .5379      .8160
 7945.5000     2.2511    76.9315      .5509      .8200
 7946.0000     2.2579    75.1284      .4924      .8185
 7946.5000     2.2557    79.4512      .4859      .8037
 7947.0000     2.2505    79.1398      .4878      .7893
 7947.5000     2.2487    81.7705      .5276      .7763
 7948.0000     2.2527    80.8219      .5612      .7686
 7948.5000     2.2584    80.7784      .6469      .7620
 7949.0000     2.2617    82.2913      .6156      .7659
 7949.5000     2.2630    82.4868      .6308      .7713
 7950.0000     2.2626    82.9629      .5294      .7803
 7950.5000     2.2644    80.6888      .5301      .7933
 7951.0000     2.2712    81.0202      .5113      .8102
 7951.5000     2.2800    81.1901      .4827      .8199
 7952.0000     2.2834    80.9169      .4835      .8238
 7952.5000     2.2735    82.8749      .4538      .8205
 7953.0000     2.2554    82.4331      .4550      .8112
 7953.5000     2.2423    81.8130      .4914      .7975
 7954.0000     2.2444    76.9262      .5018      .7841
 7954.5000     2.2570    76.1664      .5397      .7745
 7955.0000     2.2694    72.3708      .5065      .7823
 7955.5000     2.2760    72.1288      .4816      .8281
 7956.0000     2.2789    70.0369      .5007      .8619
 7956.5000     2.2788    72.2443      .5169      .8360
 7957.0000     2.2777    75.6548      .5803      .8207
 7957.5000     2.2772    79.2302      .6214      .8217
 7958.0000     2.2801    81.5452      .5615      .8118
 7958.5000     2.2859    76.8667      .4604      .8012
 7959.0000     2.2925    75.6510      .4662      .7928
 7959.5000     2.2940    76.0514      .4951      .7799
 7960.0000     2.2905    80.4500      .5638      .7736
 7960.5000     2.2886    81.5986      .5544      .7874
 7961.0000     2.2915    83.0343      .5798      .7946
 7961.5000     2.2969    79.6074      .5030      .7913
 7962.0000     2.2930    79.7182      .4816      .8416
 7962.5000     2.2722    77.3104      .4313     1.0431
 7963.0000     2.2413    76.6365      .4058     1.2879
 7963.5000     2.2239    73.8914      .3996     1.3183
 7964.0000     2.2412    73.2692      .4079     1.1697
 7964.5000     2.2705    76.8950      .4582      .9868
 7965.0000     2.2848    79.8461      .4870      .8860
 7965.5000     2.2758    84.5928      .5127      .8144
 7966.0000     2.2670    81.6420      .4932      .7772
 7966.5000     2.2717    78.1557      .5048      .7577
 7967.0000     2.2864    74.1858      .4829      .7530
 7967.5000     2.2976    72.7505      .4376      .7536
 7968.0000     2.3042    74.6147      .4494      .7402
 7968.5000     2.3043    78.6658      .4653      .7244
 7969.0000     2.2985    83.1266      .5249      .7340
 7969.5000     2.2828    85.0290      .5411      .7439
 7970.0000     2.2659    83.4641      .5658      .7303
 7970.5000     2.2572    80.4538      .5993      .7161
