~VERSION INFORMATION
VERS.                                                 2.0:   CWLS Log ASCII Standard-VERSION 2.0
WRAP.                                                  NO:   One line per depth step
~Well Information Block
STRT.F                                          5633.5000:   Top Depth
STOP.F                                          9740.0000:   Bottom Depth
STEP.F                                             .50000:   Depth Increment
NULL.                                            -999.250:   Null Value
FLD .                                             FREEMAN:   Field Name
WELL.                                     FREEMAN-003-ST1:   NAME
COMP.                                                SPDC:   OPERATOR
UWBI.                                      40000000257402:   UWBI
~PARAMETER INFORMATION (log)
LNAM.                                              PUBLIC:   NAME
LTYP.                                         INTERPRETED:   LOG TYPE
LSRV.                                          EVALUATION:   SERVICE
LVSN.                                                   1:   LOG VERSION
BHIS.                                                  RC:   BRIEF HISTORY
FHIS.                                     RAW-LAS/PUBLISH:   FULL HISTORY
CN  .                                              SNEPCO:   OPERATOR
DATE.                         Wednesday, March 11 2009 07:   RUN DATE
~Curve Information Block
#MNEM.UNIT                                        API CODE    No Description
#=========                                        ========    == ===========
DEPT.F     FT. MD                            00 001 00 00:     1  DEPTH
DEN.G/C3                                                 :     2  Bulk Density                  =rhoz_jr
DT.US/F                                                  :     3  Delta-T Compressional
GR.API                                                   :     4  Gamma Ray                     =ecgr_j
NEU.FRAC                                                 :     5  Neutron Porosity in Limestone =tnph_j
RES_DEP.OHMM                                             :     6  Resistivity Deep              =resd_jr
~ASCII
# ...
 9110.5000     2.3063   131.8000    83.4993      .4794      .8790
 9111.0000     2.2863   126.6000    78.0756      .4416      .8828
 9111.5000     2.2722   127.3000    78.5389      .4940      .8821
 9112.0000     2.2741   132.0000    80.0516      .5846      .8800
 9112.5000     2.2951   132.0000    81.7668      .5817      .8813
 9113.0000     2.3392   132.2000    80.7511      .5610      .8937
 9113.5000     2.3881   131.3000    82.2539      .5507      .9012
 9114.0000     2.4106   130.4000    84.4463      .6345      .9013
 9114.5000     2.3960   131.0000    84.2622      .7099      .8882
 9115.0000     2.3610   129.8000    87.2430      .5909      .8722
 9115.5000     2.3301   130.2000    85.5235      .4997      .8631
 9116.0000     2.3049   126.8000    85.8566      .5098      .8577
 9116.5000     2.2769   129.2000    82.2097      .5460      .8655
 9117.0000     2.2616   129.6000    86.8530      .4785      .8796
 9117.5000     2.2800   126.7000    92.7105      .4588      .8958
 9118.0000     2.3156   124.4000    98.6529      .4893      .8990
 9118.5000     2.3274   123.7000    97.5826      .5234      .8857
 9119.0000     2.3086   124.5000    98.8731      .4799      .8791
 9119.5000     2.2987   125.1000    97.4313      .4663      .8733
 9120.0000     2.3206   124.4000   100.7860      .4420      .8645
 9120.5000     2.3534   123.8000   101.9130      .4577      .8652
 9121.0000     2.3698   122.2000   104.4140      .4998      .8826
 9121.5000     2.3641   127.0000   103.2340      .5470      .9040
 9122.0000     2.3528   128.0000   102.3330      .5699      .9152
 9122.5000     2.3441   125.8000   100.7410      .6163      .9049
 9123.0000     2.3408   127.8000   100.2550      .5611      .8803
 9123.5000     2.3414   126.0000    99.6911      .5041      .8612
 9124.0000     2.3434   125.7000   100.9900      .5188      .8298
 9124.5000     2.3456   124.4000   107.3240      .5082      .7661
 9125.0000     2.3464   124.6000   106.8900      .5246      .7493
 9125.5000     2.3422   123.3000   102.6400      .4790      .8026
 9126.0000     2.3308   123.9000    86.5788      .4405      .9399
 9126.5000     2.3166   121.2000    81.8612      .4331     1.1671
 9127.0000     2.3077   122.0000    80.4701      .4258     1.2982
 9127.5000     2.3096   121.9000    84.6950      .4232     1.2928
 9128.0000     2.3221   118.7000    85.2405      .4115     1.2532
 9128.5000     2.3388   121.7000    87.6434      .4267     1.2428
 9129.0000     2.3505   120.9000    88.7205      .4400     1.2842
 9129.5000     2.3528   119.9000    89.8570      .4890     1.2672
 9130.0000     2.3487   123.1000    92.5481      .4906     1.2005
 9130.5000     2.3432   126.0000    92.2287      .5213     1.1750
 9131.0000     2.3370   131.6000    92.1470      .5287     1.1790
 9131.5000     2.3295   129.9000    90.9183      .5000     1.1886
 9132.0000     2.3226   125.9000    90.7964      .4909     1.1960
 9132.5000     2.3203   127.6000    90.0175      .4757     1.2032
 9133.0000     2.3249   120.5000    87.0187      .5231     1.1989
 9133.5000     2.3330   135.5000    87.4914      .4859     1.1693
 9134.0000     2.3380   132.4000    86.0482      .5170     1.1332
 9134.5000     2.3356   129.7000    90.2162      .5287     1.1044
 9135.0000     2.3265   127.2000    92.4286      .5732     1.0978
 9135.5000     2.3154   122.9000    95.1130      .6461     1.1004
 9136.0000     2.3088   124.7000    93.6247      .7219     1.1004
 9136.5000     2.3114   125.3000    93.5590      .6915     1.0899
 9137.0000     2.3187   124.3000    94.3097      .5421     1.0833
 9137.5000     2.3207   123.6000    93.3513      .5154     1.0843
 9138.0000     2.3147   122.7000    92.4090      .5692     1.0845
 9138.5000     2.3068   123.8000    91.2379      .6573     1.0820
 9139.0000     2.3038   121.1000    90.3330      .6059     1.0733
 9139.5000     2.3075   121.5000    90.5052      .5167     1.0634
 9140.0000     2.3172   123.2000    88.3010      .4589     1.0566
 9140.5000     2.3285   121.6000    89.6937      .4656     1.0717
 9141.0000     2.3366   118.9000    90.7865      .4573     1.1165
 9141.5000     2.3418   115.0000    98.5220      .4382     1.1529
 9142.0000     2.3475   112.6000   102.2370      .4028     1.1896
 9142.5000     2.3561   103.8000   103.7490      .4120     1.2317
 9143.0000     2.3688   105.8000    96.8530      .4214     1.2765
 9143.5000     2.3855   104.4000    94.1556      .4045     1.3262
 9144.0000     2.4028   103.7000    86.8177      .3848     1.3667
 9144.5000     2.4160   104.4000    90.0183      .3676     1.3872
 9145.0000     2.4229   104.0000    87.1004      .3646     1.4045
 9145.5000     2.4236   107.8000    89.3425      .3826     1.4272
 9146.0000     2.4184   106.3000    88.7753      .3808     1.4491
 9146.5000     2.4077   104.0000    87.8048      .3694     1.4539
 9147.0000     2.3921   105.3000    91.4687      .3451     1.4497
 9147.5000     2.3744   109.0000    92.7411      .3855     1.4343
 9148.0000     2.3612   109.4000    92.4521      .4465     1.4313
 9148.5000     2.3570   107.9000    90.6447      .4810     1.4559
 9149.0000     2.3589   102.8000    90.8842      .4721     1.4894
 9149.5000     2.3612   111.3000    94.9555      .4115     1.5144
 9150.0000     2.3621   109.9000    94.2271      .3910     1.4878
 9150.5000     2.3631   109.4000    92.5618      .3617     1.4539
 9151.0000     2.3641   106.8000    89.8744      .3618     1.5308
 9151.5000     2.3635   106.7000    86.6183      .3613     1.6852
 9152.0000     2.3584   109.7000    86.0793      .3772     1.7600
 9152.5000     2.3464   115.9000    86.3614      .4179     1.5273
 9153.0000     2.3322   117.9000    90.6638      .4269     1.1520
 9153.5000     2.3283   116.1000    95.3764      .4474     1.0696
 9154.0000     2.3413   115.1000   102.1000      .4925     1.2658
 9154.5000     2.3612   109.2000    98.6039      .4826     1.3293
 9155.0000     2.3717   113.4000    96.8778      .4335     1.2585
 9155.5000     2.3674   113.7000    96.9675      .4118     1.1689
 9156.0000     2.3565   112.2000    96.5839      .4143     1.1072
 9156.5000     2.3491   111.3000    90.9091      .4363     1.1508
 9157.0000     2.3519   110.4000    87.8967      .4326     1.2674
 9157.5000     2.3644   107.3000    84.6862      .4288     1.3694
 9158.0000     2.3797   106.0000    87.1658      .4345     1.3870
 9158.5000     2.3877   107.8000    88.7328      .4019     1.3252
 9159.0000     2.3842   117.6000    89.7182      .3965     1.2385
 9159.5000     2.3779   119.3000    90.9175      .4218     1.1948
 9160.0000     2.3836   114.0000    89.5725      .5846     1.1763
 9160.5000     2.3961   117.0000    87.9618      .5908     1.1674
 9161.0000     2.3929   117.0000    87.9782      .6003     1.1514
 9161.5000     2.3706   118.2000    90.8116      .5583     1.1603
 9162.0000     2.3452   132.5000    91.8737      .5261     1.1036
 9162.5000     2.3282   132.6000    89.2182      .5262     1.0407
 9163.0000     2.3144   133.4000    90.8531      .5029      .9955
 9163.5000     2.3023   130.5000    92.0728      .5678      .9672
 9164.0000     2.3006   126.5000    94.9820      .5774      .9756
 9164.5000     2.3066   127.4000    90.9957      .5826     1.0894
 9165.0000     2.3123   123.8000    90.7819      .6230     1.2517
 9165.5000     2.3147   123.3000    89.3887      .6313     1.2604
 9166.0000     2.3116   119.9000    88.0389      .6380     1.1746
 9166.5000     2.3038   125.6000    86.5289      .5677     1.1229
 9167.0000     2.2991   121.1000    86.3749      .5281     1.1270
 9167.5000     2.3008   120.3000    88.7554      .4872     1.1240
 9168.0000     2.3000   119.5000    91.0929      .5233     1.0594
 9168.5000     2.2906   118.3000    93.1334      .5438     1.0369
 9169.0000     2.2789   122.8000    91.2022      .5343     1.1213
 9169.5000     2.2689   119.5000    90.7601      .4471     1.2113
 9170.0000     2.2578   122.0000    92.4247      .4759     1.2078
 9170.5000     2.2492   122.3000    96.5931      .4547     1.1547
 9171.0000     2.2562   121.0000    96.2178      .4799     1.0985
