~VERSION INFORMATION
VERS.                                                 2.0:   CWLS Log ASCII Standard-VERSION 2.0
WRAP.                                                  NO:   One line per depth step
~Well Information Block
STRT.F                                          7564.5000:   Top Depth
STOP.F                                         11357.0000:   Bottom Depth
STEP.F                                             .50000:   Depth Increment
NULL.                                            -999.250:   Null Value
FLD .                                             FREEMAN:   Field Name
WELL.                                     FREEMAN-004-ST1:   NAME
CTRY.                                                 NIG:   COUNTRY
COMP.                                                SPDC:   OPERATOR
SPUD.                                          1998/05/26:   SPUD DATE
UWBI.                                      40000000257502:   UWBI
~PARAMETER INFORMATION (log)
LNAM.                                                                   PUBLIC:   NAME
LTYP.                                                              INTERPRETED:   LOG TYPE
LSRV.                                                               EVALUATION:   SERVICE
LVSN.                                                                        1:   LOG VERSION
BHIS.                                                                       RC:   BRIEF HISTORY
FHIS.                                                          RAW-LAS/PUBLISH:   FULL HISTORY
CN  .        SHELL NIGERIA EXPLORATION AND PRODUCTION COMPANY LIMITED (SNEPCO):   OPERATOR
~Curve Information Block
#MNEM.UNIT                                                             API CODE    No Description
#=========                                                             ========    == ===========
DEPT.F     FT. MD                            00 001 00 00:     1  DEPTH
DEN.G/CC                                                 :     2  Bulk Density                  =rhoz_e
DT.US/F                                                  :     3  Sonic (Compressional)         =dtlf_e
GR.API                                                   :     4  Gamma Ray                     =ecgr_02
NEUT.FRAC                                                :     5  Neutron Porosity              =nphi_02
RES_DEP.OHMM                                             :     6  Resistivity Deep              =aho90_r
~ASCII
# ...
 7686.5000     2.2382   137.5070    39.0321      .5983      .9332
 7687.0000     2.2382   137.5070    39.0321      .5983      .9332
 7687.5000     2.2382   137.5070    39.0321      .5983      .9332
 7688.0000     2.2382   137.5070    39.0321      .5983      .9332
 7688.5000     2.2382   137.5070    39.0321      .5983      .9332
 7689.0000     2.2382   137.5070    39.0321      .5983      .9332
 7689.5000     2.2382   137.5070    39.0321      .5983      .9332
 7690.0000     2.2382   137.5070    39.0321      .5983      .9332
 7690.5000     2.2382   137.5070    39.0321      .5983      .9332
 7691.0000     2.2382   137.5070    39.0321      .5983      .9332
 7691.5000     2.2382   137.5070    39.0321      .5983      .9332
 7692.0000     2.2382   137.5070    39.0321      .5983      .9332
 7692.5000     2.2382   137.5070    39.0321      .5983      .9332
 7693.0000     2.2382   137.5070    39.0321      .5983      .9332
 7693.5000     2.2382   137.5070    39.0321      .5983      .9332
 7694.0000     2.2382   137.5070    39.0321      .5983      .9332
 7694.5000     2.2382   137.5070    39.0321      .5983      .9332
 7695.0000     2.2382   137.5070    39.0321      .5983      .9332
 7695.5000     2.2382   137.5070    39.0321      .5983      .9332
 7696.0000     2.2382   137.5070    39.0321      .5983      .9332
 7696.5000     2.2382   137.5070    39.0321      .5983      .9332
 7697.0000     2.2382   137.5070    39.0321      .5983      .9332
 7697.5000     2.2382   137.5070    39.0321      .5983      .9332
 7698.0000     2.2382   137.5070    39.0321      .5983      .9332
 7698.5000     2.2382   137.5070    39.0321      .5983      .9332
 7699.0000     2.2382   137.5070    39.0321      .5983      .9332
 7699.5000     2.2382   137.5070    39.0321      .5983      .9332
 7700.0000     2.2382   137.5070    39.0321      .5983      .9332
 7700.5000     2.2382   137.5070    39.0321      .5983      .9332
 7701.0000     2.2382   137.5070    39.0321      .5983      .9332
 7701.5000     2.2382   137.5070    39.0321      .5983      .9332
 7702.0000     2.2382   137.5070    39.0321      .5983      .9332
 7702.5000     2.2382   137.5070    39.0321      .5983      .9332
 7703.0000     2.2382   137.5070    39.0321      .5983      .9332
 7703.5000     2.2382   137.5070    39.0321      .5983      .9332
 7704.0000     2.2382   137.5070    39.0321      .5983      .9332
 7704.5000     2.2382   137.5070    39.0321      .5983      .9332
 7705.0000     2.2382   137.5070    39.0321      .5983      .9332
 7705.5000     2.2382   137.5070    39.0321      .5983      .9332
 7706.0000     2.2382   137.5070    39.0321      .5983      .9332
 7706.5000     2.2382   137.5070    39.0321      .5983      .9332
 7707.0000     2.2382   137.5070    39.0321      .5983      .9332
 7707.5000     2.2382   137.5070    39.0321      .5983      .9332
 7708.0000     2.2382   137.5070    39.0321      .5983      .9332
 7708.5000     2.2382   137.5070    39.0321      .5983      .9332
 7709.0000     2.2382   137.5070    39.0321      .5983      .9332
 7709.5000     2.2382   137.5070    39.0321      .5983      .9332
 7710.0000     2.2382   137.5070    39.0321      .5983      .9332
 7710.5000     2.2382   137.5070    39.0321      .5983      .9332
 7711.0000     2.2382   137.5070    39.0321      .5983      .9332
 7711.5000     2.2382   137.5070    39.0321      .5983      .9332
 7712.0000     2.2382   137.5070    39.0321      .5983      .9332
 7712.5000     2.2382   137.5070    39.0321      .5983      .9332
 7713.0000     2.2382   137.5070    39.0321      .5983      .9332
 7713.5000     2.2382   137.5070    39.0321      .5983      .9332
 7714.0000     2.2382   137.5070    39.0321      .5983      .9332
 7714.5000     2.2382   137.5070    39.0321      .5983      .9332
 7715.0000     2.2382   137.5070    39.0321      .5983      .9332
 7715.5000     2.2382   137.5070    39.0321      .5983      .9332
 7716.0000     2.2382   137.5070    39.0321      .5983      .9332
 7716.5000     2.2382   137.5070    39.0321      .5983      .9332
 7717.0000     2.2382   137.5070    39.0321      .5983      .9332
 7717.5000     2.2382   137.5070    39.0321      .5983      .9332
 7718.0000     2.2382   137.5070    39.0321      .5983      .9332
 7718.5000     2.2382   137.5070    39.0321      .5983      .9332
 7719.0000     2.2382   137.5070    39.0321      .5983      .9332
 7719.5000     2.2382   137.5070    39.0321      .5983      .9332
 7720.0000     2.2382   137.5070    39.0321      .5983      .9332
 7720.5000     2.2382   137.5070    39.0321      .5983      .9332
 7721.0000     2.2382   137.5070    39.0321      .5983      .9332
 7721.5000     2.2382   137.5070    39.0321      .5983      .9332
 7722.0000     2.2382   137.5070    39.0321      .5983      .9332
 7722.5000     2.2382   137.5070    39.0321      .5983      .9332
 7723.0000     2.2382   137.5070    39.0321      .5983      .9332
 7723.5000     2.2382   137.5070    39.0321      .5983      .9332
 7724.0000     2.2382   137.5070    39.0321      .5983      .9332
 7724.5000     2.2382   137.5070    39.0321      .5983      .9332
 7725.0000     2.2382   137.5070    39.0321      .5983      .9332
 7725.5000     2.2382   137.5070    39.0321      .5983      .9332
 7726.0000     2.2382   137.5070    39.0321      .5983      .9332
 7726.5000     2.2382   137.5070    39.0321      .5983      .9332
 7727.0000     2.2382   137.5070    39.0321      .5983      .9332
 7727.5000     2.2382   137.5070    39.0321      .5983      .9332
 7728.0000     2.2382   137.5070    39.0321      .5983      .9332
 7728.5000     2.2382   137.5070    39.0321      .5983      .9332
 7729.0000     2.2382   137.5070    39.0321      .5983      .9332
 7729.5000     2.2382   137.5070    39.0321      .5983      .9332
 7730.0000     2.2382   137.5070    39.0321      .5983      .9332
 7730.5000     2.2382   137.5070    39.0321      .5983      .9332
 7731.0000     2.2382   137.5070    39.0321      .5983      .9332
 7731.5000     2.2382   137.5070    39.0321      .5983      .9332
 7732.0000     2.2382   137.5070    39.0321      .5983      .9332
 7732.5000     2.2382   137.5070    39.0321      .5983      .9332
 7733.0000     2.2382   137.5070    39.0321      .5983      .9332
 7733.5000     2.2382   137.5070    39.0321      .5983      .9332
 7734.0000     2.2382   137.5070    39.0321      .5983      .9332
 7734.5000     2.2382   137.5070    39.0321      .5983      .9332
 7735.0000     2.2382   137.5070    39.0321      .5983      .9332
 7735.5000     2.2382   137.5070    39.0321      .5983      .9332
 7736.0000     2.2382   137.5070    39.0321      .5983      .9332
 7736.5000     2.2382   137.5070    39.0321      .5983      .9332
 7737.0000     2.2382   137.5070    39.0321      .5983      .9332
 7737.5000     2.2382   137.5070    39.0321      .5983      .9332
 7738.0000     2.2382   137.5070    39.0321      .5983      .9332
 7738.5000     2.2382   137.5070    39.0321      .5983      .9332
 7739.0000     2.2382   137.5070    39.0321      .5983      .9332
 7739.5000     2.2382   137.5070    39.0321      .5983      .9332
 7740.0000     2.2382   137.5070    39.0321      .5983      .9332
 7740.5000     2.2382   137.5070    39.0321      .5983      .9332
 7741.0000     2.2382   137.5070    39.0321      .5983      .9332
 7741.5000     2.2382   137.5070    39.0321      .5983      .9332
 7742.0000     2.2382   137.5070    39.0321      .5983      .9332
 7742.5000     2.2382   137.5070    39.0321      .5983      .9332
 7743.0000     2.2382   137.5070    39.0321      .5983      .9332
 7743.5000     2.2382   137.5070    39.0321      .5983      .9332
 7744.0000     2.2382   137.5070    39.0321      .5983      .9332
 7744.5000     2.2382   137.5070    39.0321      .5983      .9332
 7745.0000     2.2382   137.5070    39.0321      .5983      .9332
 7745.5000     2.2382   137.5070    39.0321      .5983      .9332
 7746.0000     2.2382   137.5070    39.0321      .5983      .9332
 7746.5000     2.2382   137.5070    39.0321      .5983      .9332
 7747.0000     2.2382   137.5070    39.0321      .5983      .9332
