~VERSION INFORMATION
VERS.                                                 2.0:   CWLS Log ASCII Standard-VERSION 2.0
WRAP.                                                  NO:   One line per depth step
~Well Information Block
STRT.F                                          5633.5000:   Top Depth
STOP.F                                          9740.0000:   Bottom Depth
STEP.F                                             .50000:   Depth Increment
NULL.                                            -999.250:   Null Value
FLD .                                             FREEMAN:   Field Name
WELL.                                     FREEMAN-003-ST1:   NAME
COMP.                                                SPDC:   OPERATOR
UWBI.                                      40000000257402:   UWBI
~PARAMETER INFORMATION (log)
LNAM.                                              PUBLIC:   NAME
LTYP.                                         INTERPRETED:   LOG TYPE
LSRV.                                          EVALUATION:   SERVICE
LVSN.                                                   1:   LOG VERSION
BHIS.                                                  RC:   BRIEF HISTORY
FHIS.                                     RAW-LAS/PUBLISH:   FULL HISTORY
CN  .                                              SNEPCO:   OPERATOR
DATE.                         Wednesday, March 11 2009 07:   RUN DATE
~Curve Information Block
#MNEM.UNIT                                        API CODE    No Description
#=========                                        ========    == ===========
DEPT.F     FT. MD                            00 001 00 00:     1  DEPTH
DEN.G/C3                                                 :     2  Bulk Density                  =rhoz_jr
DT.US/F                                                  :     3  Delta-T Compressional
GR.API                                                   :     4  Gamma Ray                     =ecgr_j
NEU.FRAC                                                 :     5  Neutron Porosity in Limestone =tnph_j
RES_DEP.OHMM                                             :     6  Resistivity Deep              =resd_jr
~ASCII
# ...
 8866.5000     2.2745   134.5000    92.9581      .6111      .9252
 8867.0000     2.2698   132.6000    90.2822      .5364      .9385
 8867.5000     2.2678   131.4000    87.7093      .5655      .9365
 8868.0000     2.2716   130.1000    85.4802      .6065      .9359
 8868.5000     2.2771   133.8000    82.2067      .6328      .9420
 8869.0000     2.2750   134.1000    88.2825      .6678      .9187
 8869.5000     2.2561   136.5000    88.9800      .7142      .8899
 8870.0000     2.2265   136.2000    90.3721      .6966      .8781
 8870.5000     2.2102   141.0000    85.2881      .6222      .8587
 8871.0000     2.2223   134.6000    88.7807      .4947      .8360
 8871.5000     2.2466   136.3000    88.1451      .4694      .8215
 8872.0000     2.2610   137.1000    88.4439      .5166      .8113
 8872.5000     2.2613   136.4000    85.9825      .5745      .8181
 8873.0000     2.2547   136.7000    86.6930      .7466      .8241
 8873.5000     2.2478   133.4000    86.9054      .5980      .8237
 8874.0000     2.2487   136.5000    85.7623      .6915      .8171
 8874.5000     2.2639   134.9000    88.2062      .7557      .8169
 8875.0000     2.2822   141.6000    90.5433     1.1664      .8257
 8875.5000     2.2855   134.8000    89.1516      .8911      .8326
 8876.0000     2.2747   136.9000    86.5439      .7488      .8272
 8876.5000     2.2672   135.9000    83.3951      .8228      .8060
 8877.0000     2.2696   135.8000    85.6724      .5541      .7820
 8877.5000     2.2663   134.2000    88.9593      .4777      .7657
 8878.0000     2.2504   136.5000    89.3012      .4457      .7547
 8878.5000     2.2427   136.5000    88.2664      .5487      .7515
 8879.0000     2.2611   135.3000    87.0380      .6653      .7604
 8879.5000     2.2885   134.3000    86.6528      .5492      .7716
 8880.0000     2.2822   135.0000    85.5246      .5382      .7891
 8880.5000     2.2352   134.5000    83.7105      .4990      .8243
 8881.0000     2.1969   136.8000    82.9528      .5437      .8436
 8881.5000     2.2150   137.0000    85.0318      .6046      .8453
 8882.0000     2.2743   133.7000    79.5623      .8167      .8510
 8882.5000     2.3163   135.6000    79.1470      .7561      .8522
 8883.0000     2.2979   133.5000    77.4456      .6983      .8518
 8883.5000     2.2545   135.2000    82.6837      .6055      .8429
 8884.0000     2.2485   138.2000    86.3473      .6353      .8282
 8884.5000     2.2177   137.4000    83.7094      .6990      .8194
 8885.0000     2.0951   133.9000    82.6406      .7023      .8402
 8885.5000     1.9420   134.5000    83.8602      .5712      .8983
 8886.0000     1.9635   130.1000    87.4758      .5264      .9068
 8886.5000     2.1656   133.1000    95.2479      .4869      .9082
 8887.0000     2.3289   134.7000   102.8680      .5740      .9186
 8887.5000     2.3516   134.2000   108.4480      .4319      .9264
 8888.0000     2.3018   133.4000   111.3330      .4551      .9344
 8888.5000     2.2933   133.2000   111.4850      .4367      .9480
 8889.0000     2.3027   131.4000   117.2920      .5730      .9731
 8889.5000     2.3062   132.9000   116.7530      .6102      .9421
 8890.0000     2.3102   132.1000   114.8000      .6568      .9352
 8890.5000     2.3166   131.6000   109.0040      .6800      .9551
 8891.0000     2.3210   132.9000   108.1740      .7173      .9635
 8891.5000     2.3187   128.7000   107.0580      .6563      .9620
 8892.0000     2.3135   132.0000   107.0270      .5155      .9603
 8892.5000     2.3109   127.6000   107.1560      .3883     1.0111
 8893.0000     2.3083   127.3000   106.7700      .3537     1.1849
 8893.5000     2.2997   125.7000   104.7720      .3354     1.2782
 8894.0000     2.2886   130.5000   105.9230      .4010     1.1431
 8894.5000     2.2847   128.4000   110.7570      .4811      .9857
 8895.0000     2.2885   134.7000   107.7630      .6960      .9020
 8895.5000     2.2927   129.5000   105.3380      .6507      .8646
 8896.0000     2.2936   126.4000    95.0040      .5438      .8469
 8896.5000     2.2927   128.9000    97.9551      .4814      .8544
 8897.0000     2.2927   129.4000    95.4606      .5477      .8657
 8897.5000     2.2960   128.7000    99.1975      .5778      .8602
 8898.0000     2.3049   126.8000   102.6380      .5912      .8604
 8898.5000     2.3185   129.5000    99.1479      .4609      .8980
 8899.0000     2.3304   129.4000    92.7077      .4504      .9274
 8899.5000     2.3311   130.9000    85.9693      .4304      .9048
 8900.0000     2.3175   132.7000    84.4837      .4369      .8861
 8900.5000     2.2985   135.3000    85.8413      .4666      .8792
 8901.0000     2.2855   135.9000    87.3887      .4993      .8691
 8901.5000     2.2809   135.2000    89.5467      .4541      .8564
 8902.0000     2.2812   134.4000    89.4033      .4149      .8698
 8902.5000     2.2854   134.2000    86.9860      .4414      .9044
 8903.0000     2.2916   132.0000    87.4123      .5182      .8837
 8903.5000     2.2928   136.5000    92.5476      .6686      .8368
 8904.0000     2.2861   131.3000    94.0128      .6632      .7954
 8904.5000     2.2777   137.4000    96.5926      .7156      .7668
 8905.0000     2.2734   132.3000    99.8399      .5952      .7614
 8905.5000     2.2732   132.2000    98.6338      .5627      .7677
 8906.0000     2.2750   132.2000    96.5008      .5829      .7749
 8906.5000     2.2768   134.6000    89.2102      .6865      .7789
 8907.0000     2.2771   133.4000    87.1344      .6988      .7904
 8907.5000     2.2731   133.4000    85.0377      .6492      .8070
 8908.0000     2.2641   134.6000    88.8676      .6262      .8188
 8908.5000     2.2535   131.2000    92.3506      .6611      .8165
 8909.0000     2.2452   133.0000    96.3124      .6308      .8168
 8909.5000     2.2421   133.0000    96.4152      .5689      .8402
 8910.0000     2.2465   135.3000    96.3323      .4956      .8698
 8910.5000     2.2611   133.0000    94.4930      .4633      .8865
 8911.0000     2.2815   133.7000    89.4152      .4616      .8782
 8911.5000     2.2943   133.8000    84.6208      .4992      .8640
 8912.0000     2.2917   132.7000    87.0065      .4583      .8635
 8912.5000     2.2802   131.4000    92.6871      .4849      .8830
 8913.0000     2.2714   131.2000   100.2350      .4748      .8966
 8913.5000     2.2696   130.3000   105.2200      .5338      .8931
 8914.0000     2.2725   132.5000   106.9850      .6721      .8906
 8914.5000     2.2776   126.6000   106.4780      .7404      .8988
 8915.0000     2.2827   126.6000    98.9686      .5089      .9007
 8915.5000     2.2878   127.3000    97.0483      .4206      .8935
 8916.0000     2.2948   129.1000    91.4682      .4262      .9120
 8916.5000     2.3019   129.3000    94.2162      .4623      .9436
 8917.0000     2.3050   132.4000    98.2474      .5453      .9445
 8917.5000     2.3021   128.1000   101.5150      .5295      .9285
 8918.0000     2.2944   129.5000   101.2780      .6271      .9685
 8918.5000     2.2841   129.5000    97.7451      .5037     1.0907
 8919.0000     2.2739   131.5000    95.4110      .6244     1.1454
 8919.5000     2.2671   131.5000    94.2979      .5669     1.1335
 8920.0000     2.2631   129.0000    92.2402      .4639     1.1479
 8920.5000     2.2586   131.4000    93.4405      .4497     1.1655
 8921.0000     2.2538   130.2000    92.7083      .4421     1.1580
 8921.5000     2.2512   130.2000    97.7685      .5049     1.1313
 8922.0000     2.2499   130.4000    98.0129      .5184     1.1108
 8922.5000     2.2490   131.4000    93.4226      .5561     1.0822
 8923.0000     2.2504   132.5000    88.3434      .5972     1.0605
 8923.5000     2.2554   130.9000    85.7104      .7178     1.0461
 8924.0000     2.2609   137.3000    88.4526      .7897      .9286
 8924.5000     2.2640   128.4000    90.5041      .6742      .8154
 8925.0000     2.2654   128.9000    99.4884      .5653      .8243
 8925.5000     2.2654   128.9000   103.2010      .5156      .8730
 8926.0000     2.2639   128.9000   102.5410      .6080      .9274
 8926.5000     2.2635   132.3000    96.6115      .7199      .9912
 8927.0000     2.2670   132.3000    96.0391      .7014      .9949
