~VERSION INFORMATION
VERS.                                                 2.0:   CWLS Log ASCII Standard-VERSION 2.0
WRAP.                                                  NO:   One line per depth step
~Well Information Block
STRT.F                                          7679.0000:   Top Depth
STOP.F                                          8606.0000:   Bottom Depth
STEP.F                                             .50000:   Depth Increment
NULL.                                            -999.250:   Null Value
FLD .                                             FREEMAN:   Field Name
WELL.                                         FREEMAN-004:   NAME
CTRY.                                                 NIG:   COUNTRY
COMP.                                                SPDC:   OPERATOR
SPUD.                                          1998/05/26:   SPUD DATE
UWBI.                                      40000000257501:   UWBI
~PARAMETER INFORMATION (log)
LNAM.                                              PUBLIC:   NAME
LTYP.                                         INTERPRETED:   LOG TYPE
LSRV.                                          EVALUATION:   SERVICE
LVSN.                                                   1:   LOG VERSION
BHIS.                                                  RC:   BRIEF HISTORY
FHIS.                                     RAW-LAS/PUBLISH:   FULL HISTORY
CN  .                                              SNEPCO:   OPERATOR
~Curve Information Block
#MNEM.UNIT                                        API CODE    No Description
#=========                                        ========    == ===========
DEPT.F     FT. MD                            00 001 00 00:     1  DEPTH
DEN.G/CC                                                 :     2  Bulk Density                  =rhoz_01r
GR.API                                                   :     3  Gamma Ray                     =gr_01
NEUT.FRAC                                                :     4  Neutron Porosity              =tnph_01
RES_DEP.OHMM                                             :     5  Resistivity Deep              =aho90_1r
~ASCII
# ...
 8409.0000     1.9830    49.5597      .4919     2.2607
 8409.5000     1.9832    45.5946      .4332     3.5820
 8410.0000     1.9835    41.7639      .4098     7.9738
 8410.5000     1.9831    36.9903      .3997    15.8042
 8411.0000     1.9819    36.3785      .4124    18.4310
 8411.5000     1.9787    37.6803      .4315    15.2589
 8412.0000     1.9721    42.9201      .4322    15.1810
 8412.5000     1.9663    45.3415      .4430    17.1739
 8413.0000     1.9637    46.5857      .4971    18.8988
 8413.5000     1.9636    45.7469      .4623    23.4678
 8414.0000     1.9637    42.1705      .4257    37.0591
 8414.5000     1.9590    37.2166      .4007    71.4542
 8415.0000     1.9557    34.0191      .4213   151.9004
 8415.5000     1.9557    32.2767      .4351   390.5374
 8416.0000     1.9622    31.4407      .4727   935.5381
 8416.5000     1.9680    29.7429      .5170  1356.6910
 8417.0000     1.9655    28.1666      .5399  1191.7510
 8417.5000     1.9596    27.2576      .5085   968.9161
 8418.0000     1.9560    26.4636      .5545   931.8577
 8418.5000     1.9580    25.5716      .5487  1092.1440
 8419.0000     1.9622    29.6859      .5007  1418.0830
 8419.5000     1.9678    31.0305      .4564  1755.3390
 8420.0000     1.9755    33.6156      .4447  1928.0439
 8420.5000     1.9746    33.7173      .4672  1950.0000
 8421.0000     1.9659    35.6774      .4841  1950.0000
 8421.5000     1.9607    34.4638      .5103  1950.0000
 8422.0000     1.9644    34.1724      .4969  1950.0000
 8422.5000     1.9697    33.2826      .4908  1950.0000
 8423.0000     1.9675    32.0152      .4908  1950.0000
 8423.5000     1.9640    31.1070      .4715  1950.0000
 8424.0000     1.9663    29.3633      .4884  1950.0000
 8424.5000     1.9726    30.3720      .4675  1950.0000
 8425.0000     1.9755    29.7269      .5310  1950.0000
 8425.5000     1.9744    28.5603      .4925  1950.0000
 8426.0000     1.9704    28.1771      .4783  1950.0000
 8426.5000     1.9657    28.3509      .4493  1950.0000
 8427.0000     1.9621    26.7300      .4468  1950.0000
 8427.5000     1.9593    27.1213      .4532  1950.0000
 8428.0000     1.9621    26.5274      .4523  1948.0640
 8428.5000     1.9672    28.2184      .4707  1876.9780
 8429.0000     1.9720    27.9879      .4816  1681.3730
 8429.5000     1.9748    27.5989      .4939  1455.9480
 8430.0000     1.9757    28.2941      .4661  1333.0560
 8430.5000     1.9733    29.3732      .4583  1377.7980
 8431.0000     1.9669    29.3270      .4408  1509.5470
 8431.5000     1.9612    29.5427      .4306  1291.3580
 8432.0000     1.9615    29.8124      .4370   713.5467
 8432.5000     1.9659    30.4312      .4411   328.5557
 8433.0000     1.9697    30.6871      .4338   182.3048
 8433.5000     1.9714    30.8549      .3865   117.4746
 8434.0000     1.9731    31.1185      .3734    97.6874
 8434.5000     1.9761    32.7696      .3903    41.5983
 8435.0000     1.9812    35.6104      .4281    11.0960
 8435.5000     1.9829    41.2887      .4813     3.9983
 8436.0000     1.9782    47.4572      .5024     1.8556
 8436.5000     1.9712    51.0516      .5025     1.6291
 8437.0000     1.9675    51.6419      .4732     1.6532
 8437.5000     1.9694    51.0449      .4669     1.6808
 8438.0000     1.9729    50.8428      .4452     1.6920
 8438.5000     1.9750    50.8948      .4277     1.7547
 8439.0000     1.9729    52.0508      .4142     1.8054
 8439.5000     1.9650    52.2241      .3994     1.8403
 8440.0000     1.9580    48.4013      .4605     1.8251
 8440.5000     1.9553    49.2837      .4784     1.7899
 8441.0000     1.9575    49.8513      .4556     1.7759
 8441.5000     1.9604    50.2939      .4501     1.8455
 8442.0000     1.9616    46.8309      .4770     1.9116
 8442.5000     1.9608    48.8732      .4905     1.9463
 8443.0000     1.9596    50.6586      .4890     1.9760
 8443.5000     1.9595    53.4154      .4330     2.0192
 8444.0000     1.9618    50.9787      .4217     2.0430
 8444.5000     1.9620    52.0097      .3845     2.0385
 8445.0000     1.9593    48.4365      .3625     2.0162
 8445.5000     1.9570    46.9087      .3788     2.0022
 8446.0000     1.9585    46.3636      .4615     1.9659
 8446.5000     1.9644    46.1161      .5126     1.8250
 8447.0000     1.9709    45.5727      .5136     1.8710
 8447.5000     1.9769    44.9064      .4599     1.9774
 8448.0000     1.9815    46.4647      .4169     1.7999
 8448.5000     1.9831    50.3060      .4313     1.6568
 8449.0000     1.9810    54.3528      .4800     1.5962
 8449.5000     1.9752    52.0857      .5206     1.5576
 8450.0000     1.9690    48.2029      .5015     1.4988
 8450.5000     1.9658    44.9719      .4344     1.4479
 8451.0000     1.9670    46.9608      .4302     1.4338
 8451.5000     1.9705    51.6749      .4696     1.4229
 8452.0000     1.9801    55.1574      .4924     1.4198
 8452.5000     1.9963    57.8097      .4834     1.4092
 8453.0000     2.0132    57.8952      .4701     1.3737
 8453.5000     2.0170    56.8609      .4488     1.3398
 8454.0000     2.0066    56.1491      .4350     1.3331
 8454.5000     1.9956    55.5311      .4388     1.3220
 8455.0000     1.9906    56.1396      .4532     1.3357
 8455.5000     1.9813    54.7583      .4577     1.4026
 8456.0000     1.9716    50.6664      .4537     1.5162
 8456.5000     1.9797    48.2116      .4536     1.5679
 8457.0000     2.0168    43.8254      .4232     1.5704
 8457.5000     2.0601    44.4771      .4347     1.6043
 8458.0000     2.0763    44.6170      .4105     1.5895
 8458.5000     2.0542    46.7975      .4396     1.5304
 8459.0000     2.0114    46.6631      .4206     1.5043
 8459.5000     1.9802    46.5285      .4402     1.5070
 8460.0000     1.9719    44.5231      .4455     1.5249
 8460.5000     1.9808    44.6629      .4680     1.5932
 8461.0000     2.0047    44.5088      .4637     1.6169
 8461.5000     2.0495    46.2339      .4362     1.6101
 8462.0000     2.1067    49.5331      .4163     1.5986
 8462.5000     2.1379    48.3553      .4335     1.6131
 8463.0000     2.1292    46.6221      .4234     1.6081
 8463.5000     2.0953    44.8300      .4231     1.6052
 8464.0000     2.0658    44.6107      .4187     1.6171
 8464.5000     2.0526    43.8028      .3996     1.6604
 8465.0000     2.0570    44.9098      .3884     1.7196
 8465.5000     2.0951    47.2710      .3972     1.6971
 8466.0000     2.1537    54.3002      .4048     1.6157
 8466.5000     2.2002    58.9810      .4106     1.5731
 8467.0000     2.2149    60.8064      .3961     1.6256
 8467.5000     2.2098    58.6094      .3779     1.7991
 8468.0000     2.2068    54.7927      .3477     1.7875
 8468.5000     2.2082    51.5353      .3413     1.7459
 8469.0000     2.2117    50.8454      .3579     1.7423
 8469.5000     2.2169    52.0818      .3758     1.7278
 8470.0000     2.2275    57.2306      .3744     1.7060
 8470.5000     2.2485    62.5387      .3661     1.6074
 8471.0000     2.2707    66.6678      .3571     1.5467
 8471.5000     2.2892    65.0290      .3671     1.5923
 8472.0000     2.3024    65.4551      .3690     1.5738
 8472.5000     2.3182    68.1208      .4015     1.5437
 8473.0000     2.3256    72.2914      .3929     1.5353
 8473.5000     2.3141    74.1942      .3804     1.5550
 8474.0000     2.2915    72.2390      .3487     1.5824
 8474.5000     2.2727    69.3867      .3251     1.6046
 8475.0000     2.2690    65.3478      .3454     1.6214
 8475.5000     2.2847    62.2002      .3377     1.6253
 8476.0000     2.2932    54.9141      .3379     1.7034
 8476.5000     2.2732    47.7719      .3372     1.9438
 8477.0000     2.2229    37.4615      .3645     1.9434
 8477.5000     2.1777    31.4155      .3845     1.7313
 8478.0000     2.1617    31.6983      .3547     1.6999
 8478.5000     2.1714    34.1542      .3205     1.7291
 8479.0000     2.1944    37.8980      .3001     1.6623
 8479.5000     2.2222    46.2807      .3112     1.5340
 8480.0000     2.2463    54.9164      .3405     1.5113
 8480.5000     2.2581    63.5145      .3543     1.5182
 8481.0000     2.2542    65.5734      .3493     1.5028
 8481.5000     2.2453    66.1357      .3878     1.4834
