~VERSION INFORMATION
VERS.                                                 2.0:   CWLS Log ASCII Standard-VERSION 2.0
WRAP.                                                  NO:   One line per depth step
~Well Information Block
STRT.F                                          5633.5000:   Top Depth
STOP.F                                          9740.0000:   Bottom Depth
STEP.F                                             .50000:   Depth Increment
NULL.                                            -999.250:   Null Value
FLD .                                             FREEMAN:   Field Name
WELL.                                     FREEMAN-003-ST1:   NAME
COMP.                                                SPDC:   OPERATOR
UWBI.                                      40000000257402:   UWBI
~PARAMETER INFORMATION (log)
LNAM.                                              PUBLIC:   NAME
LTYP.                                         INTERPRETED:   LOG TYPE
LSRV.                                          EVALUATION:   SERVICE
LVSN.                                                   1:   LOG VERSION
BHIS.                                                  RC:   BRIEF HISTORY
FHIS.                                     RAW-LAS/PUBLISH:   FULL HISTORY
CN  .                                              SNEPCO:   OPERATOR
DATE.                         Wednesday, March 11 2009 07:   RUN DATE
~Curve Information Block
#MNEM.UNIT                                        API CODE    No Description
#=========                                        ========    == ===========
DEPT.F     FT. MD                            00 001 00 00:     1  DEPTH
DEN.G/C3                                                 :     2  Bulk Density                  =rhoz_jr
DT.US/F                                                  :     3  Delta-T Compressional
GR.API                                                   :     4  Gamma Ray                     =ecgr_j
NEU.FRAC                                                 :     5  Neutron Porosity in Limestone =tnph_j
RES_DEP.OHMM                                             :     6  Resistivity Deep              =resd_jr
~ASCII
# ...
 5999.5000     2.0739   161.9000   108.7050      .4327     1.3662
 6000.0000     2.0950   162.7000   110.0390      .4081     1.4192
 6000.5000     2.1056   162.7000   109.0510      .4055     1.6042
 6001.0000     2.1084   162.6000   105.9210      .5076     1.7401
 6001.5000     2.1071   162.7000   109.5340      .6212     1.7263
 6002.0000     2.1016   161.8000   113.5240      .5196     1.6462
 6002.5000     2.0909   162.4000   110.0360      .4767     1.5368
 6003.0000     2.0772   163.4000   107.5340      .4370     1.4634
 6003.5000     2.0690   163.3000   102.4050      .4859     1.4398
 6004.0000     2.0702   163.9000   100.2520      .5437     1.4540
 6004.5000     2.0742   164.4000    96.2380      .5854     1.3736
 6005.0000     2.0719   165.7000   102.2830      .5657     1.2018
 6005.5000     2.0581   167.8000   105.8930      .5834     1.1636
 6006.0000     2.0373   168.4000   106.4470      .7659     1.2935
 6006.5000     2.0195   168.9000   107.6270      .6617     1.4853
 6007.0000     2.0080   170.0000   108.1900      .6219     1.5015
 6007.5000     1.9984   171.6000   107.0170      .4978     1.4510
 6008.0000     1.9868   172.6000   105.2860      .5827     1.3711
 6008.5000     1.9776   174.6000   100.7550      .5981     1.3323
 6009.0000     1.9754   175.8000    97.9323      .6453     1.3571
 6009.5000     1.9759   177.0000    98.4859      .6013     1.3834
 6010.0000     1.9739   177.4000   104.1940      .7706     1.4011
 6010.5000     1.9707   178.2000   108.6450      .7809     1.4076
 6011.0000     1.9678   178.4000   112.2710      .7964     1.4171
 6011.5000     1.9646   178.5000   111.8740      .6241     1.4389
 6012.0000     1.9620   178.7000   107.7310      .5712     1.4588
 6012.5000     1.9617   178.6000   103.6560      .5261     1.4579
 6013.0000     1.9632   178.7000   103.0320      .6463     1.4446
 6013.5000     1.9657   178.6000   103.2100      .6196     1.4435
 6014.0000     1.9668   178.6000   107.3370      .6499     1.4454
 6014.5000     1.9652   178.6000   109.4310      .5163     1.4424
 6015.0000     1.9618   178.7000   108.9010      .5153     1.4319
 6015.5000     1.9607   178.6000   106.7670      .5925     1.4290
 6016.0000     1.9644   178.5000   104.8070      .7325     1.4230
 6016.5000     1.9707   178.8000   111.5690     1.0941     1.4153
 6017.0000     1.9756   178.4000   114.9100      .9907     1.4133
 6017.5000     1.9747   178.5000   122.4970      .9174     1.4207
 6018.0000     1.9662   178.6000   114.6590      .7490     1.4292
 6018.5000     1.9560   178.4000   106.4970      .7216     1.4245
 6019.0000     1.9513   178.5000   103.9910      .6022     1.4167
 6019.5000     1.9519   178.8000   108.0630      .4913     1.4116
 6020.0000     1.9535   178.7000   107.3290      .4879     1.4055
 6020.5000     1.9510   178.6000   103.4950      .5176     1.3946
 6021.0000     1.9421   178.7000   105.4960      .4902     1.3984
 6021.5000     1.9327   178.9000   109.4500      .5078     1.4066
 6022.0000     1.9297   178.8000   110.6800      .4658     1.4040
 6022.5000     1.9314   179.3000   102.1220      .5199     1.3914
 6023.0000     1.9314   179.1000   100.6890      .4527     1.4032
 6023.5000     1.9298   179.1000   100.2690      .4764     1.4204
 6024.0000     1.9341   179.3000   104.9910      .5254     1.4210
 6024.5000     1.9406   179.7000   104.9630      .5225     1.3910
 6025.0000     1.9348   179.7000   103.0830      .4952     1.3634
 6025.5000     1.9177   179.4000    97.9546      .5690     1.3298
 6026.0000     1.9079   179.6000    94.4357      .6714     1.3137
 6026.5000     1.9165   180.3000    89.1464      .6713     1.3173
 6027.0000     1.9316   179.3000    87.6902      .4874     1.3265
 6027.5000     1.9369   179.6000    91.6187      .4842     1.3237
 6028.0000     1.9384   179.4000    96.2441      .5041     1.3067
 6028.5000     1.9499   179.7000   100.6610      .5913     1.2521
 6029.0000     1.9658   180.0000   103.9250      .4977     1.2153
 6029.5000     1.9711   180.4000    99.2318      .5770     1.2449
 6030.0000     1.9637   180.5000   104.6880      .6085     1.2829
 6030.5000     1.9574   180.4000   107.9160      .8311     1.2909
 6031.0000     1.9614   180.2000   113.2430      .6227     1.2829
 6031.5000     1.9658   179.2000   108.7160      .5909     1.2892
 6032.0000     1.9595   179.7000   107.6520      .5898     1.2934
 6032.5000     1.9478   179.5000   104.9110      .5464     1.3211
 6033.0000     1.9462   179.6000   103.4910      .4782     1.3702
 6033.5000     1.9648   179.1000   103.6660      .4331     1.4023
 6034.0000     1.9940   178.9000   102.3300      .4809     1.4115
 6034.5000     2.0131   178.4000   104.1450      .5154     1.4152
 6035.0000     2.0130   178.4000   103.3530      .6970     1.4087
 6035.5000     2.0072   177.8000   105.3840      .6772     1.3987
 6036.0000     2.0160   177.7000   104.5930      .5853     1.4028
 6036.5000     2.0376   177.1000   107.6960      .4559     1.4154
 6037.0000     2.0497   177.4000   101.7810      .4639     1.4130
 6037.5000     2.0416   178.0000   110.5870      .4848     1.3705
 6038.0000     2.0272   177.6000   109.6390      .4740     1.3399
 6038.5000     2.0224   177.6000   111.4460      .4835     1.3435
 6039.0000     2.0248   177.1000   107.2540      .4499     1.3765
 6039.5000     2.0232   175.6000   102.2610      .5144     1.4112
 6040.0000     2.0164   175.1000   103.6250      .5693     1.3930
 6040.5000     2.0139   174.6000   107.9430      .5633     1.1588
 6041.0000     2.0166   174.6000   117.5590      .5067      .9917
 6041.5000     2.0176   173.6000   115.9780      .4501      .9764
 6042.0000     2.0190   173.0000   113.8440      .4802     1.1191
 6042.5000     2.0265   172.7000   108.4500      .5015     1.4155
 6043.0000     2.0366   172.6000   110.1700      .5121     1.5059
 6043.5000     2.0396   172.8000   106.2300      .4133     1.5212
 6044.0000     2.0354   171.9000   103.4390      .3946     1.5122
 6044.5000     2.0337   170.2000   103.2060      .4196     1.4882
 6045.0000     2.0364   171.5000   102.1510      .4971     1.4395
 6045.5000     2.0343   172.6000   103.0660      .6718     1.3966
 6046.0000     2.0267   174.2000   104.0090      .8492     1.3541
 6046.5000     2.0228   175.2000   108.8590      .8460     1.3191
 6047.0000     2.0232   175.6000   109.2970      .8183     1.2933
 6047.5000     2.0155   176.5000   103.2120      .7652     1.2927
 6048.0000     1.9952   177.2000    95.5618      .7179     1.2959
 6048.5000     1.9747   177.5000   101.2430      .5245     1.2999
 6049.0000     1.9660   178.1000   108.8850      .4948     1.3038
 6049.5000     1.9679   178.3000   115.4000      .5665     1.3044
 6050.0000     1.9705   178.0000   110.3010      .7210     1.2992
 6050.5000     1.9680   177.6000   103.1330      .7161     1.2970
 6051.0000     1.9660   177.0000   101.7270      .5096     1.2967
 6051.5000     1.9694   176.6000   101.9870      .4556     1.3189
 6052.0000     1.9755   176.1000   106.3070      .4501     1.3564
 6052.5000     1.9762   176.0000   110.5650      .5167     1.4099
 6053.0000     1.9743   174.8000   111.6380      .5179     1.4427
 6053.5000     1.9756   174.3000   115.7330      .5310     1.4698
 6054.0000     1.9787   173.7000   115.0230      .4977     1.4895
 6054.5000     1.9840   173.4000   112.0390      .5555     1.4860
 6055.0000     1.9951   172.7000   112.2790      .4586     1.4762
 6055.5000     2.0154   172.6000   109.0680      .4777     1.4793
 6056.0000     2.0421   171.8000   109.4310      .5127     1.5168
 6056.5000     2.0604   171.4000   107.2600      .4668     1.5582
 6057.0000     2.0554   170.8000   110.0410      .5017     1.5456
 6057.5000     2.0307   170.7000   113.6850      .4884     1.4978
 6058.0000     2.0074   170.4000   115.0740      .5002     1.4728
 6058.5000     2.0017   170.3000   114.9760      .4939     1.4552
 6059.0000     2.0076   169.4000   116.4230      .4708     1.4406
 6059.5000     2.0174   168.5000   112.9290      .5090     1.4426
 6060.0000     2.0308   168.5000   108.2000      .5383     1.4568
