~VERSION INFORMATION
VERS.                                                 2.0:   CWLS Log ASCII Standard-VERSION 2.0
WRAP.                                                  NO:   One line per depth step
~Well Information Block
STRT.F                                          7564.5000:   Top Depth
STOP.F                                         11357.0000:   Bottom Depth
STEP.F                                             .50000:   Depth Increment
NULL.                                            -999.250:   Null Value
FLD .                                             FREEMAN:   Field Name
WELL.                                     FREEMAN-004-ST1:   NAME
CTRY.                                                 NIG:   COUNTRY
COMP.                                                SPDC:   OPERATOR
SPUD.                                          1998/05/26:   SPUD DATE
UWBI.                                      40000000257502:   UWBI
~PARAMETER INFORMATION (log)
LNAM.                                                                   PUBLIC:   NAME
LTYP.                                                              INTERPRETED:   LOG TYPE
LSRV.                                                               EVALUATION:   SERVICE
LVSN.                                                                        1:   LOG VERSION
BHIS.                                                                       RC:   BRIEF HISTORY
FHIS.                                                          RAW-LAS/PUBLISH:   FULL HISTORY
CN  .        SHELL NIGERIA EXPLORATION AND PRODUCTION COMPANY LIMITED (SNEPCO):   OPERATOR
~Curve Information Block
#MNEM.UNIT                                                             API CODE    No Description
#=========                                                             ========    == ===========
DEPT.F     FT. MD                            00 001 00 00:     1  DEPTH
DEN.G/CC                                                 :     2  Bulk Density                  =rhoz_e
DT.US/F                                                  :     3  Sonic (Compressional)         =dtlf_e
GR.API                                                   :     4  Gamma Ray                     =ecgr_02
NEUT.FRAC                                                :     5  Neutron Porosity              =nphi_02
RES_DEP.OHMM                                             :     6  Resistivity Deep              =aho90_r
~ASCII
# ...
 8418.5000     2.2085   115.4612    41.3480      .4639  1950.0000
 8419.0000     2.2086   115.4800    42.0922      .4287  1950.0000
 8419.5000     2.2087   115.4987    41.7414      .4461  1950.0000
 8420.0000     2.2089   115.5175    41.1768      .4397  1950.0000
 8420.5000     2.2090   115.5363    38.2893      .4481  1950.0000
 8421.0000     2.2092   115.5551    36.3222      .4326  1950.0000
 8421.5000     2.2093   115.5739    34.7425      .4135  1950.0000
 8422.0000     2.2094   115.5927    37.4380      .4281  1950.0000
 8422.5000     2.2096   115.6115    40.0871      .4259  1950.0000
 8423.0000     2.2097   115.6303    41.4004      .4380  1950.0000
 8423.5000     2.2099   115.6491    39.0342      .4034  1950.0000
 8424.0000     2.2100   115.6679    39.3365      .4087  1950.0000
 8424.5000     2.2101   115.6867    37.4794      .4080  1950.0000
 8425.0000     2.2103   115.7054    38.0228      .4342  1950.0000
 8425.5000     2.2104   115.7242    35.1317      .4259  1950.0000
 8426.0000     2.2105   115.7430    32.5939      .4285  1950.0000
 8426.5000     2.2107   115.7618    34.0896      .4042   634.8501
 8427.0000     2.2108   115.7806    36.7160      .4137   151.6606
 8427.5000     2.2110   115.7994    38.5539      .4208    61.8163
 8428.0000     2.2111   115.8182    37.5037      .4343    33.0621
 8428.5000     2.2112   115.8370    37.1173      .4383    22.1215
 8429.0000     2.2114   115.8558    39.2695      .4619    21.1967
 8429.5000     2.2115   115.8746    40.4548      .4655    28.9022
 8430.0000     2.2117   115.8933    41.0011      .4757    54.4180
 8430.5000     2.2118   115.9121    37.2304      .4584   117.8545
 8431.0000     2.2119   115.9309    36.5791      .4445   141.6602
 8431.5000     2.2121   115.9497    35.8068      .4154    42.8748
 8432.0000     2.2122   115.9685    42.9150      .3980    12.6467
 8432.5000     2.2124   115.9873    52.3278      .4226     3.9820
 8433.0000     2.2125   116.0061    62.7401      .4276     1.9571
 8433.5000     2.2126   116.0249    67.4532      .4138     1.5008
 8434.0000     2.2128   116.0437    69.2482      .4119     1.4820
 8434.5000     2.2129   116.0625    66.4988      .4322     1.5642
 8435.0000     2.2130   116.0813    69.7717      .4574     1.6921
 8435.5000     2.2132   116.1000    68.3748      .4511     1.8873
 8436.0000     2.2133   116.1188    70.7982      .4260     1.9717
 8436.5000     2.2135   116.1376    67.7143      .4289     1.9574
 8437.0000     2.2136   116.1564    65.9537      .4526     1.8799
 8437.5000     2.2137   116.1752    63.9159      .4616     1.8101
 8438.0000     2.2139   116.1940    62.3112      .4435     1.7723
 8438.5000     2.2140   116.2128    59.8483      .4109     1.7921
 8439.0000     2.2142   116.2316    58.9843      .4067     1.8438
 8439.5000     2.2143   116.2504    56.7690      .4149     1.8955
 8440.0000     2.2144   116.2692    61.2802      .3992     1.9632
 8440.5000     2.2146   116.2879    61.7455      .3923     2.0062
 8441.0000     2.2147   116.3067    62.9469      .3855     2.0733
 8441.5000     2.2149   116.3255    60.6221      .4014     2.1011
 8442.0000     2.2150   116.3443    59.5203      .3955     2.0813
 8442.5000     2.2151   116.3631    58.6882      .4128     2.0609
 8443.0000     2.2153   116.3819    57.0026      .4456     2.0053
 8443.5000     2.2154   116.4007    58.9504      .4607     1.9174
 8444.0000     2.2155   116.4195    56.4512      .4391     1.8417
 8444.5000     2.2157   116.4383    58.4208      .4113     2.0068
 8445.0000     2.2158   116.4571    57.7803      .4247     1.8213
 8445.5000     2.2160   116.4759    60.4310      .4436     1.5825
 8446.0000     2.2161   116.4946    58.4417      .4443     1.5264
 8446.5000     2.2162   116.5134    60.0560      .4441     1.5526
 8447.0000     2.2164   116.5322    62.1860      .4264     1.5337
 8447.5000     2.2165   116.5510    66.4248      .4402     1.4854
 8448.0000     2.2167   116.5698    68.1192      .4360     1.4496
 8448.5000     2.2168   116.5886    71.9383      .5183     1.4266
 8449.0000     2.2169   116.6074    70.7535      .5159     1.4180
 8449.5000     2.2171   116.6262    71.1280      .5431     1.4013
 8450.0000     2.2172   116.6450    73.7583      .4787     1.3861
 8450.5000     2.2174   116.6638    77.7382      .4591     1.3742
 8451.0000     2.2175   116.6825    77.1806      .4600     1.3627
 8451.5000     2.2176   116.7013    78.3172      .4637     1.3483
 8452.0000     2.2178   116.7201    75.6539      .4909     1.3603
 8452.5000     2.2179   116.7389    71.7700      .4790     1.4387
 8453.0000     2.2180   116.7577    63.4456      .4666     1.5395
 8453.5000     2.2182   116.7765    61.6440      .4511     1.6011
 8454.0000     2.2183   116.7953    59.7209      .4162     1.6844
 8454.5000     2.2185   116.8141    56.6620      .3924     1.7686
 8455.0000     2.2186   116.8329    53.9545      .3974     1.7334
 8455.5000     2.2187   116.8517    53.4783      .4162     1.6207
 8456.0000     2.2189   116.8704    56.1011      .4417     1.5386
 8456.5000     2.2190   116.8892    57.2357      .4439     1.4885
 8457.0000     2.2192   116.9080    55.2079      .4601     1.5233
 8457.5000     2.2193   116.9268    57.4379      .4611     1.5803
 8458.0000     2.2194   116.9456    56.9578      .4196     1.5979
 8458.5000     2.2196   116.9644    61.1192      .4092     1.6073
 8459.0000     2.2197   116.9832    61.4753      .3997     1.6309
 8459.5000     2.2199   117.0020    64.1045      .4187     1.6353
 8460.0000     2.2200   117.0208    63.7201      .4084     1.6340
 8460.5000     2.2201   117.0396    61.4091      .4215     1.6349
 8461.0000     2.2203   117.0583    58.9847      .4660     1.6513
 8461.5000     2.2204   117.0771    57.8571      .4703     1.6458
 8462.0000     2.2205   117.0959    58.3607      .4379     1.6530
 8462.5000     2.2207   117.1147    62.6000      .3876     1.6663
 8463.0000     2.2208   117.1335    69.4194      .4090     1.6525
 8463.5000     2.2210   117.1523    72.5481      .4344     1.6348
 8464.0000     2.2501   117.1711    71.9584      .4379     1.6595
 8464.5000     2.2460   117.1899    68.3593      .4015     1.8045
 8465.0000     2.2460   117.2087    66.9109      .3783     1.8348
 8465.5000     2.2539   117.2275    64.3889      .3596     1.7782
 8466.0000     2.2614   117.2463    62.4613      .3469     1.7389
 8466.5000     2.2664   117.2650    65.8467      .3358     1.7131
 8467.0000     2.2753   117.2838    74.0486      .3280     1.6561
 8467.5000     2.2896   117.3026    78.8190      .3426     1.5986
 8468.0000     2.3058   117.3214    79.3432      .3375     1.5486
 8468.5000     2.3207   117.3402    80.1194      .3577     1.5777
 8469.0000     2.3327   117.3590    86.0264      .3602     1.6020
 8469.5000     2.3444   117.3778    91.5804      .3953     1.5606
 8470.0000     2.3505   117.3966    94.9321      .4047     1.5511
 8470.5000     2.3494   117.4154    92.3882      .4149     1.5886
 8471.0000     2.3432   117.4342    89.8796      .4116     1.6091
 8471.5000     2.3385   117.4529    85.4999      .3967     1.6071
 8472.0000     2.3380   117.4717    80.2632      .3766     1.6066
 8472.5000     2.3416   117.4905    75.8588      .3754     1.6320
 8473.0000     2.3379   117.5093    63.4128      .3556     1.7180
 8473.5000     2.3105   117.5281    56.4497      .3498     2.0421
 8474.0000     2.2573   117.5469    46.2571      .3272     2.2855
 8474.5000     2.2017   117.5657    43.8691      .3477     1.9862
 8475.0000     2.1721   117.5845    40.1235      .3538     1.7541
 8475.5000     2.1747   117.6033    42.4443      .3564     1.7157
 8476.0000     2.1984   117.6221    49.6007      .3384     1.6808
 8476.5000     2.2282   117.6409    60.3158      .3417     1.5804
 8477.0000     2.2542   117.6596    68.5062      .3590     1.4985
 8477.5000     2.2687   117.6784    74.4193      .3876     1.4862
 8478.0000     2.2714   117.6972    77.0642      .3769     1.4740
 8478.5000     2.2677   117.7160    78.2117      .3904     1.4544
 8479.0000     2.2675   117.7348    78.0557      .3816     1.4834
