~VERSION INFORMATION
VERS.                                                 2.0:   CWLS Log ASCII Standard-VERSION 2.0
WRAP.                                                  NO:   One line per depth step
~Well Information Block
STRT.F                                          5633.5000:   Top Depth
STOP.F                                          9740.0000:   Bottom Depth
STEP.F                                             .50000:   Depth Increment
NULL.                                            -999.250:   Null Value
FLD .                                             FREEMAN:   Field Name
WELL.                                     FREEMAN-003-ST1:   NAME
COMP.                                                SPDC:   OPERATOR
UWBI.                                      40000000257402:   UWBI
~PARAMETER INFORMATION (log)
LNAM.                                              PUBLIC:   NAME
LTYP.                                         INTERPRETED:   LOG TYPE
LSRV.                                          EVALUATION:   SERVICE
LVSN.                                                   1:   LOG VERSION
BHIS.                                                  RC:   BRIEF HISTORY
FHIS.                                     RAW-LAS/PUBLISH:   FULL HISTORY
CN  .                                              SNEPCO:   OPERATOR
DATE.                         Wednesday, March 11 2009 07:   RUN DATE
~Curve Information Block
#MNEM.UNIT                                        API CODE    No Description
#=========                                        ========    == ===========
DEPT.F     FT. MD                            00 001 00 00:     1  DEPTH
DEN.G/C3                                                 :     2  Bulk Density                  =rhoz_jr
DT.US/F                                                  :     3  Delta-T Compressional
GR.API                                                   :     4  Gamma Ray                     =ecgr_j
NEU.FRAC                                                 :     5  Neutron Porosity in Limestone =tnph_j
RES_DEP.OHMM                                             :     6  Resistivity Deep              =resd_jr
~ASCII
# ...
 8378.5000     2.2302   138.7000    88.5152      .4906      .8940
 8379.0000     2.2273   138.3000    90.5030      .5098      .8976
 8379.5000     2.2229   139.8000    87.6910      .5310      .8959
 8380.0000     2.2218   138.9000    82.5252      .5402      .8963
 8380.5000     2.2235   139.1000    85.8331      .5049      .9040
 8381.0000     2.2231   139.0000    90.7215      .5759      .8973
 8381.5000     2.2202   138.7000    90.8606      .5899      .8757
 8382.0000     2.2193   138.0000    85.3863      .6646      .8638
 8382.5000     2.2201   138.2000    85.6749      .5957      .8596
 8383.0000     2.2166   137.8000    87.4902      .5804      .8632
 8383.5000     2.2080   138.0000    89.1778      .6114      .8712
 8384.0000     2.2039   137.6000    85.0526      .5198      .8909
 8384.5000     2.2137   137.1000    84.0959      .4479      .9157
 8385.0000     2.2329   136.6000    78.5508      .4380      .9539
 8385.5000     2.2472   137.2000    85.7733      .4835      .9717
 8386.0000     2.2506   137.4000    86.8420      .5621      .9693
 8386.5000     2.2482   137.9000    89.8486      .6513      .9577
 8387.0000     2.2450   139.3000    86.8645      .6144      .9423
 8387.5000     2.2401   139.3000    88.1229      .6254      .9289
 8388.0000     2.2315   139.3000    93.8778      .7322      .9140
 8388.5000     2.2222   138.1000    91.0822      .9641      .8982
 8389.0000     2.2191   138.2000    86.2816      .9159      .9045
 8389.5000     2.2271   137.7000    80.3846      .7657      .9190
 8390.0000     2.2428   137.2000    74.3652      .7076      .9366
 8390.5000     2.2551   137.0000    77.6399      .8427      .9500
 8391.0000     2.2559   137.7000    77.0515      .6363      .9542
 8391.5000     2.2485   138.7000    80.7766      .6458      .9582
 8392.0000     2.2405   138.7000    76.5556      .5224      .9492
 8392.5000     2.2319   138.1000    77.1390      .5855      .9368
 8393.0000     2.2207   137.9000    81.5505      .5096      .9220
 8393.5000     2.2188   137.1000    87.4627      .5172      .9160
 8394.0000     2.2422   136.7000    87.8859      .5224      .9255
 8394.5000     2.2802   136.7000    86.9142      .5307      .9340
 8395.0000     2.2984   135.9000    90.6641      .4523      .9311
 8395.5000     2.2816   136.4000    95.0682      .4447      .9217
 8396.0000     2.2521   137.7000    97.9701      .5040      .9215
 8396.5000     2.2365   138.1000    97.1894      .5382      .9258
 8397.0000     2.2356   139.1000    96.1349      .5167      .9276
 8397.5000     2.2357   136.7000    94.2232      .5151      .9319
 8398.0000     2.2307   136.7000    92.2294      .5528      .9368
 8398.5000     2.2256   135.3000    86.2822      .5763      .9335
 8399.0000     2.2282   132.4000    87.2152      .6918      .9427
 8399.5000     2.2415   133.6000    88.1241      .7179      .9617
 8400.0000     2.2582   131.6000    87.2663      .7836      .9786
 8400.5000     2.2655   133.6000    87.5220      .5440      .9836
 8401.0000     2.2595   134.8000    89.2626      .5793      .9819
 8401.5000     2.2483   134.4000    97.9243      .5924      .9844
 8402.0000     2.2411   134.9000   100.3460      .6739      .9758
 8402.5000     2.2411   133.8000    95.0307      .5838      .9680
 8403.0000     2.2469   133.7000    91.5201      .4803      .9936
 8403.5000     2.2546   131.9000    85.5078      .4374     1.0152
 8404.0000     2.2590   135.6000    87.6476      .4520     1.0341
 8404.5000     2.2585   131.0000    87.2073      .5404     1.0540
 8405.0000     2.2574   131.4000    94.0825      .5419     1.0912
 8405.5000     2.2616   128.2000    99.0436      .7765     1.1155
 8406.0000     2.2695   131.9000   100.4680      .7231     1.1034
 8406.5000     2.2727   131.9000    96.4463      .7723     1.0512
 8407.0000     2.2691   132.2000    95.7958      .5309     1.0133
 8407.5000     2.2662   133.3000    95.9942      .4931     1.0086
 8408.0000     2.2695   128.9000    99.9503      .4892     1.0148
 8408.5000     2.2745   130.1000   101.5940      .5621     1.0354
 8409.0000     2.2709   135.0000   100.8140      .5737     1.0453
 8409.5000     2.2586   136.0000    97.7767      .6262      .9786
 8410.0000     2.2475   139.1000    92.8955      .7287      .8765
 8410.5000     2.2418   139.3000    87.4714      .6457      .8303
 8411.0000     2.2308   141.0000    81.3523      .5960      .8232
 8411.5000     2.2034   138.8000    74.6500      .5546      .8131
 8412.0000     2.1737   138.7000    72.6632      .6788      .8044
 8412.5000     2.1752   135.7000    70.2210      .5450      .8270
 8413.0000     2.2130   135.7000    80.7689      .6205      .8553
 8413.5000     2.2517   136.7000    91.0743      .4513      .8744
 8414.0000     2.2608   139.1000    96.7212      .5329      .8867
 8414.5000     2.2462   139.6000   100.1130      .5258      .8862
 8415.0000     2.2331   138.5000    91.1436      .6238      .8673
 8415.5000     2.2308   138.1000    93.5833      .5394      .8726
 8416.0000     2.2349   136.0000    86.3642      .4592      .9157
 8416.5000     2.2393   136.4000    88.5519      .4429      .9419
 8417.0000     2.2405   137.9000    91.3673      .4771      .9422
 8417.5000     2.2387   136.1000    96.2413      .5779      .9219
 8418.0000     2.2391   138.2000    99.0458      .5913      .8961
 8418.5000     2.2417   138.5000    92.4123      .6376      .8933
 8419.0000     2.2438   139.6000    91.3236      .5966      .9081
 8419.5000     2.2442   135.7000    91.3207      .7703      .9139
 8420.0000     2.2427   135.9000    91.8409      .6206      .9065
 8420.5000     2.2380   137.8000    92.1810      .6438      .9086
 8421.0000     2.2292   138.1000    92.6680      .4449      .9168
 8421.5000     2.2228   138.7000    98.6337      .4616      .9158
 8422.0000     2.2267   134.9000    96.6050      .4497      .9178
 8422.5000     2.2370   137.1000    93.3067      .5081      .9515
 8423.0000     2.2418   133.3000    89.0481      .6115      .9897
 8423.5000     2.2361   134.9000    89.2921      .6192      .9951
 8424.0000     2.2238   132.2000    88.3709      .6841      .9982
 8424.5000     2.2123   136.5000    85.2008      .5605      .9869
 8425.0000     2.2118   136.5000    81.8126      .5563      .9548
 8425.5000     2.2301   137.8000    82.0973      .5761      .9434
 8426.0000     2.2595   138.6000    86.3196      .7100      .9338
 8426.5000     2.2763   140.3000    90.3348      .7124      .9060
 8427.0000     2.2652   138.6000    95.4709      .5692      .8777
 8427.5000     2.2400   142.7000    97.2803      .5900      .8528
 8428.0000     2.2246   141.4000    92.4553      .6965      .8473
 8428.5000     2.2238   142.2000    87.5730      .8622      .8682
 8429.0000     2.2253   139.0000    84.8925      .6774      .8776
 8429.5000     2.2214   139.2000    86.4883      .5883      .8843
 8430.0000     2.2174   139.9000    91.5320      .6148      .8850
 8430.5000     2.2184   139.5000    91.1949      .6075      .8691
 8431.0000     2.2221   139.1000    89.7900      .6203      .8401
 8431.5000     2.2272   139.1000    86.8072      .6262      .8338
 8432.0000     2.2346   140.4000    88.8478      .6161      .8217
 8432.5000     2.2414   137.6000    92.5150      .4797      .8064
 8433.0000     2.2410   138.8000    89.0725      .5021      .8018
 8433.5000     2.2313   138.8000    86.0670      .5230      .8034
 8434.0000     2.2189   141.5000    82.9504      .5507      .7970
 8434.5000     2.2111   141.0000    82.2194      .5655      .7879
 8435.0000     2.2085   142.9000    79.4064      .5266      .7820
 8435.5000     2.2067   139.7000    72.6980      .5204      .7754
 8436.0000     2.2048   140.1000    70.5465      .5754      .7639
 8436.5000     2.2067   139.8000    75.5670      .6810      .7363
 8437.0000     2.2125   140.5000    82.5722      .8550      .7140
 8437.5000     2.2169   140.2000    83.7482      .5930      .7301
 8438.0000     2.2158   140.2000    81.4360      .6504      .7475
 8438.5000     2.2145   138.1000    80.3892      .6963      .7465
 8439.0000     2.2227   138.1000    79.1935      .8492      .7557
