~VERSION INFORMATION
VERS.                                                 2.0:   CWLS Log ASCII Standard-VERSION 2.0
WRAP.                                                  NO:   One line per depth step
~Well Information Block
STRT.F                                          5633.5000:   Top Depth
STOP.F                                          9740.0000:   Bottom Depth
STEP.F                                             .50000:   Depth Increment
NULL.                                            -999.250:   Null Value
FLD .                                             FREEMAN:   Field Name
WELL.                                     FREEMAN-003-ST1:   NAME
COMP.                                                SPDC:   OPERATOR
UWBI.                                      40000000257402:   UWBI
~PARAMETER INFORMATION (log)
LNAM.                                              PUBLIC:   NAME
LTYP.                                         INTERPRETED:   LOG TYPE
LSRV.                                          EVALUATION:   SERVICE
LVSN.                                                   1:   LOG VERSION
BHIS.                                                  RC:   BRIEF HISTORY
FHIS.                                     RAW-LAS/PUBLISH:   FULL HISTORY
CN  .                                              SNEPCO:   OPERATOR
DATE.                         Wednesday, March 11 2009 07:   RUN DATE
~Curve Information Block
#MNEM.UNIT                                        API CODE    No Description
#=========                                        ========    == ===========
DEPT.F     FT. MD                            00 001 00 00:     1  DEPTH
DEN.G/C3                                                 :     2  Bulk Density                  =rhoz_jr
DT.US/F                                                  :     3  Delta-T Compressional
GR.API                                                   :     4  Gamma Ray                     =ecgr_j
NEU.FRAC                                                 :     5  Neutron Porosity in Limestone =tnph_j
RES_DEP.OHMM                                             :     6  Resistivity Deep              =resd_jr
~ASCII
# ...
 5755.5000     1.8894   100.4000    69.6905      .6430      .8313
 5756.0000     1.8750   100.4500    78.3202      .6079      .8487
 5756.5000     1.8406   102.5000    82.8544      .5522      .9141
 5757.0000     1.8387   103.0500    77.0706      .4606     1.0139
 5757.5000     1.8916   101.4000    77.7754      .4535     1.2027
 5758.0000     1.9621   100.8000    72.9894      .4660     1.4675
 5758.5000     2.0020    99.1000    76.7209      .5193     1.4495
 5759.0000     2.0108    99.1000    74.6218      .4741     1.2906
 5759.5000     2.0190    99.6500    75.3529      .5231     1.2443
 5760.0000     2.0375   101.9000    77.0051      .4688     1.2984
 5760.5000     2.0510   102.9000    80.5934      .4977     1.3873
 5761.0000     2.0396   103.2000    79.0965      .4965     1.3927
 5761.5000     2.0025   102.2000    85.7529      .4909     1.2593
 5762.0000     1.9591   101.6500    81.5246      .5585     1.1534
 5762.5000     1.9302   101.9000    84.0992      .5406     1.1678
 5763.0000     1.9103   101.4000    74.3386      .5308     1.2406
 5763.5000     1.8781   103.6000    73.6756      .5277     1.2634
 5764.0000     1.8395   106.7000    75.8856      .4593     1.2844
 5764.5000     1.8136   108.5000    73.7090      .5015     1.3266
 5765.0000     1.8077   110.0000    74.6055      .5421     1.3503
 5765.5000     1.8137   111.1000    72.5641      .6840     1.3287
 5766.0000     1.8213   110.8000    72.8628      .7663     1.3003
 5766.5000     1.8280   111.6500    71.4169      .7131     1.2846
 5767.0000     1.8211   112.0000    73.9111      .5711     1.3053
 5767.5000     1.7927   111.4500    77.6710      .5339     1.3386
 5768.0000     1.7665   115.2500    79.7853      .5905     1.3534
 5768.5000     1.7689   113.3000    79.1207      .7396     1.3465
 5769.0000     1.8052   113.5500    78.9746      .8467     1.3269
 5769.5000     1.8506   113.5000    80.0661      .6950     1.3406
 5770.0000     1.8660   111.6500    78.3457      .5991     1.3878
 5770.5000     1.8632   110.4000    79.0866      .5147     1.4021
 5771.0000     1.8794   111.8500    81.6789      .5434     1.3814
 5771.5000     1.9159   112.0500    84.3521      .5745     1.3481
 5772.0000     1.9441   113.5000    85.0058      .5668     1.3637
 5772.5000     1.9537   114.5000    85.4017      .6097     1.3951
 5773.0000     1.9670   113.3000    84.5859      .7175     1.4218
 5773.5000     1.9850   108.6000    85.1062      .7022     1.4328
 5774.0000     1.9968   106.7000    81.7653      .5534     1.4209
 5774.5000     2.0078   105.4500    84.1946      .4807     1.4618
 5775.0000     2.0220   105.2000    83.3709      .4916     1.5227
 5775.5000     2.0210   108.4500    87.3117      .6139     1.5470
 5776.0000     2.0000   111.0500    90.1821      .6084     1.5308
 5776.5000     1.9729   111.9000    94.7360      .5941     1.4960
 5777.0000     1.9527   109.1500    87.4945      .5451     1.5010
 5777.5000     1.9462   109.6000    87.3968      .6403     1.5407
 5778.0000     1.9491   111.5000    83.8410      .7052     1.5715
 5778.5000     1.9531   113.5000    86.8134      .6477     1.5608
 5779.0000     1.9540   111.5000    89.3733      .6081     1.5453
 5779.5000     1.9544   114.1500    92.6576      .6884     1.5575
 5780.0000     1.9567   114.7000    91.1080      .6981     1.5731
 5780.5000     1.9577   112.0000    87.6087      .6763     1.5613
 5781.0000     1.9548   111.7000    87.1465      .5923     1.5208
 5781.5000     1.9508   121.5000    90.8687      .6346     1.4761
 5782.0000     1.9492   109.9000    94.5508      .6859     1.4574
 5782.5000     1.9490   109.3000    95.6482      .6665     1.4722
 5783.0000     1.9483   110.3500    93.7705      .7648     1.5207
 5783.5000     1.9480   122.2000    94.7603      .7326     1.5223
 5784.0000     1.9485   120.5000    92.5498      .5570     1.4937
 5784.5000     1.9473   118.2000    93.8721      .5493     1.5053
 5785.0000     1.9442   118.1500    95.4713      .5836     1.5587
 5785.5000     1.9441   116.7000    97.9455      .6521     1.6121
 5786.0000     1.9515   116.8000    97.0868      .6250     1.6211
 5786.5000     1.9611   116.8500    91.7307      .6816     1.5749
 5787.0000     1.9661   116.1000    87.8210      .7621     1.5081
 5787.5000     1.9677   115.3500    87.9419      .6173     1.4711
 5788.0000     1.9660   112.0000    91.6182      .6391     1.4639
 5788.5000     1.9612   116.3000   100.8150      .5179     1.4809
 5789.0000     1.9626   114.7000   103.0100      .5441     1.5063
 5789.5000     1.9456   112.6000   101.0720      .4381     1.5305
 5790.0000     1.8582   118.3000    96.8508      .4743     1.5307
 5790.5000     1.7239   117.4000    98.5476      .4509     1.5142
 5791.0000     1.6589   119.9000   100.2500      .5119     1.5028
 5791.5000     1.7566   116.5000   104.0460      .5119     1.5039
 5792.0000     1.9258   112.4000   106.9640      .6173     1.5022
 5792.5000     2.0220   112.5000   107.0220      .8714     1.5144
 5793.0000     2.0259   108.1000   101.2860      .9335     1.5233
 5793.5000     2.0023   102.3500    94.1876      .8249     1.5300
 5794.0000     2.0017   102.3000    91.9413      .6466     1.5291
 5794.5000     2.0038   107.6000    94.1618      .5434     1.5271
 5795.0000     1.9546   110.8500    93.4233      .5055     1.5153
 5795.5000     1.8211   113.1000    88.1127      .5664     1.4926
 5796.0000     1.6424   103.4000    84.1998      .6025     1.4393
 5796.5000     1.5058   101.1000    81.6756      .6268     1.3672
 5797.0000     1.4486   100.1000    87.5756      .6819     1.3450
 5797.5000     1.4320    99.7000    91.6391      .7250     1.3746
 5798.0000     1.4287   100.0000    87.7578      .7276     1.3875
 5798.5000     1.4443   100.2500    81.5350      .7597     1.3426
 5799.0000     1.4788    99.9000    76.1025      .5853     1.2843
 5799.5000     1.5455    99.9000    76.7876      .6888     1.2906
 5800.0000     1.6361   104.0000    80.2716      .6892     1.3222
 5800.5000     1.7529   102.8000    79.1198      .9522     1.3464
 5801.0000     1.8822   105.6000    79.1809      .7796     1.3467
 5801.5000     1.9556   106.2000    77.1966      .7020     1.3017
 5802.0000     1.9650   106.2500    88.2755      .6158     1.2197
 5802.5000     1.9279   105.5000    88.8410      .6490     1.1406
 5803.0000     1.8675   105.2500    90.9639      .8738     1.1085
 5803.5000     1.7918   102.5000    86.5466      .8849     1.1061
 5804.0000     1.7131   102.0000    80.1005      .8961     1.0873
 5804.5000     1.6949   102.5000    78.8050      .8531     1.0557
 5805.0000     1.7248   103.8000    83.0912      .8714     1.0355
 5805.5000     1.7684   102.1500    82.2884      .6331     1.0355
 5806.0000     1.8660   101.8000    82.7124      .5855     1.0479
 5806.5000     1.9895   106.4500    81.3795      .7169     1.0625
 5807.0000     1.9702   106.9000    77.3360     1.1161     1.0738
 5807.5000     1.7589   107.6500    79.4321     1.2922     1.0950
 5808.0000     1.4783   106.0000    78.7001     1.0203     1.1337
 5808.5000     1.3470   106.1000    79.0179      .9061     1.1686
 5809.0000     1.3781   107.1500    82.4167     1.0094     1.1810
 5809.5000     1.4598   105.7000    87.2760      .8603     1.1968
 5810.0000     1.5119   143.6000    83.9865      .7964     1.2295
 5810.5000     1.5411   141.9000    81.9046      .6844     1.2420
 5811.0000     1.6010   141.7000    82.0791      .6014     1.2539
 5811.5000     1.6762   206.8500    88.4516      .5853     1.3028
 5812.0000     1.7046   209.8000    87.0283      .5938     1.3627
 5812.5000     1.6759   198.6000    86.8020      .7214     1.4514
 5813.0000     1.6508   200.4500    87.6823      .6311     1.4921
 5813.5000     1.6649   203.1000    85.5452      .5964     1.4613
 5814.0000     1.6853   204.3000    87.4072      .6214     1.3863
 5814.5000     1.6621   203.9000    91.2752      .8035     1.3042
 5815.0000     1.6059   202.8500    93.8049      .9822     1.2517
 5815.5000     1.5711   202.6000    96.9320      .7548     1.2224
 5816.0000     1.6049   204.8500    91.2081      .6340     1.1756
