~VERSION INFORMATION
VERS.                                                 2.0:   CWLS Log ASCII Standard-VERSION 2.0
WRAP.                                                  NO:   One line per depth step
~Well Information Block
STRT.F                                          5633.5000:   Top Depth
STOP.F                                          9740.0000:   Bottom Depth
STEP.F                                             .50000:   Depth Increment
NULL.                                            -999.250:   Null Value
FLD .                                             FREEMAN:   Field Name
WELL.                                     FREEMAN-003-ST1:   NAME
COMP.                                                SPDC:   OPERATOR
UWBI.                                      40000000257402:   UWBI
~PARAMETER INFORMATION (log)
LNAM.                                              PUBLIC:   NAME
LTYP.                                         INTERPRETED:   LOG TYPE
LSRV.                                          EVALUATION:   SERVICE
LVSN.                                                   1:   LOG VERSION
BHIS.                                                  RC:   BRIEF HISTORY
FHIS.                                     RAW-LAS/PUBLISH:   FULL HISTORY
CN  .                                              SNEPCO:   OPERATOR
DATE.                         Wednesday, March 11 2009 07:   RUN DATE
~Curve Information Block
#MNEM.UNIT                                        API CODE    No Description
#=========                                        ========    == ===========
DEPT.F     FT. MD                            00 001 00 00:     1  DEPTH
DEN.G/C3                                                 :     2  Bulk Density                  =rhoz_jr
DT.US/F                                                  :     3  Delta-T Compressional
GR.API                                                   :     4  Gamma Ray                     =ecgr_j
NEU.FRAC                                                 :     5  Neutron Porosity in Limestone =tnph_j
RES_DEP.OHMM                                             :     6  Resistivity Deep              =resd_jr
~ASCII
# ...
 7341.5000     2.2217   138.1000    91.1200      .4312     1.2101
 7342.0000     2.2161   143.7000    89.6518      .4587     1.1883
 7342.5000     2.2166   140.8000    88.3155      .5327     1.1416
 7343.0000     2.2184   141.5000    87.2911      .5917     1.0961
 7343.5000     2.2133   143.4000    89.5928      .6634     1.0602
 7344.0000     2.2018   142.5000    89.0069      .6033     1.0403
 7344.5000     2.1918   145.0000    91.6150      .5323     1.0268
 7345.0000     2.1873   144.2000    88.3189      .5456     1.0145
 7345.5000     2.1869   145.1000    90.0327      .6445     1.0219
 7346.0000     2.1893   142.7000    86.4770      .8053     1.0507
 7346.5000     2.1923   144.1000    93.4095      .7854     1.1170
 7347.0000     2.1902   140.9000    88.6023      .7449     1.1622
 7347.5000     2.1798   141.7000    93.9764      .5458     1.1552
 7348.0000     2.1684   143.4000    91.0742      .4296     1.1095
 7348.5000     2.1654   144.0000    97.5027      .3683     1.0557
 7349.0000     2.1683   144.0000    91.9929      .3706     1.0175
 7349.5000     2.1691   146.7000    92.1741      .4292     1.0197
 7350.0000     2.1676   144.7000    87.6263      .5688     1.0360
 7350.5000     2.1669   142.0000    83.9826      .5401     1.0399
 7351.0000     2.1653   140.5000    81.5306      .5296     1.0618
 7351.5000     2.1644   140.0000    85.7709      .4551     1.0934
 7352.0000     2.1741   138.9000    90.4145      .4748     1.0884
 7352.5000     2.1962   137.7000    95.2290      .5064     1.0335
 7353.0000     2.2143   139.3000    94.5813      .5769     1.0911
 7353.5000     2.2125   143.3000    92.8777      .5632     1.1782
 7354.0000     2.1953   144.4000    89.6818      .6516     1.1748
 7354.5000     2.1792   144.4000    86.4934      .5657     1.1466
 7355.0000     2.1732   143.8000    90.1012      .6281     1.1357
 7355.5000     2.1733   144.1000    95.2552      .5096     1.1446
 7356.0000     2.1703   142.3000    97.5358      .4299     1.1206
 7356.5000     2.1631   142.3000    93.3191      .4361     1.0858
 7357.0000     2.1605   140.3000    86.6302      .4205     1.1139
 7357.5000     2.1698   139.0000    87.0123      .4727     1.1552
 7358.0000     2.1868   138.1000    91.8136      .5548     1.1541
 7358.5000     2.2019   137.1000    93.8795      .7449     1.1379
 7359.0000     2.2109   139.1000    96.6808      .6778     1.1292
 7359.5000     2.2157   142.4000    98.9056      .5230     1.1116
 7360.0000     2.2173   143.9000    95.1565      .5583     1.0887
 7360.5000     2.2122   143.9000    90.0701      .6515     1.0630
 7361.0000     2.1987   145.3000    86.1476      .7477     1.0592
 7361.5000     2.1805   145.5000    90.4074      .8102     1.0800
 7362.0000     2.1640   141.3000    94.6850      .7937     1.0948
 7362.5000     2.1558   139.3000    94.8328      .8639     1.1225
 7363.0000     2.1602   134.7000    92.9960      .9030     1.1675
 7363.5000     2.1771   137.7000    89.1702      .8011     1.2151
 7364.0000     2.2029   137.3000    88.0091      .6073     1.2595
 7364.5000     2.2295   136.7000    90.5375      .4909     1.2543
 7365.0000     2.2465   134.3000    95.6273      .4669     1.2286
 7365.5000     2.2471   138.4000    98.1368      .4971     1.1883
 7366.0000     2.2325   138.8000    94.7215      .4254     1.1509
 7366.5000     2.2138   143.9000    82.6709      .3944     1.1072
 7367.0000     2.2015   142.9000    80.2013      .3998     1.0783
 7367.5000     2.1979   143.5000    83.3282      .4702     1.0497
 7368.0000     2.1982   143.2000    90.0814      .5174     1.0221
 7368.5000     2.1964   145.9000    90.5185      .5049     1.0064
 7369.0000     2.1932   145.0000    88.9455      .5380      .9916
 7369.5000     2.1911   148.1000    90.1698      .5503      .9850
 7370.0000     2.1894   146.4000    85.1351      .5875      .9774
 7370.5000     2.1874   148.1000    87.8159      .5204      .9815
 7371.0000     2.1855   147.8000    87.8243      .5596      .9862
 7371.5000     2.1835   147.5000    90.1156      .6187      .9733
 7372.0000     2.1815   145.9000    88.0606      .7154      .9521
 7372.5000     2.1813   145.4000    86.0780      .6028      .9418
 7373.0000     2.1835   145.4000    89.1906      .6006      .9513
 7373.5000     2.1847   147.4000    93.9447      .5652      .9666
 7374.0000     2.1820   143.7000    93.4973      .5571      .9795
 7374.5000     2.1780   143.9000    95.4654      .6088      .9856
 7375.0000     2.1762   148.6000    91.7975      .6493      .9828
 7375.5000     2.1765   141.8000    92.9176      .9214      .9888
 7376.0000     2.1766   147.9000    86.7021      .8563      .9967
 7376.5000     2.1745   147.8000    92.6262      .9129      .9916
 7377.0000     2.1695   148.7000    94.5126      .9980      .9700
 7377.5000     2.1644   147.8000    95.8446      .7708      .9306
 7378.0000     2.1647   148.5000    92.1267      .7140      .9332
 7378.5000     2.1725   147.2000    88.1305      .8033      .9833
 7379.0000     2.1824   147.8000    87.1137     1.2744     1.0195
 7379.5000     2.1861   147.6000    82.5790      .9502     1.0222
 7380.0000     2.1805   148.5000    82.7944      .8031     1.0106
 7380.5000     2.1690   148.3000    83.6061      .5878     1.0028
 7381.0000     2.1590   147.4000    88.2765      .5793      .9942
 7381.5000     2.1576   147.4000    90.6732      .4420      .9860
 7382.0000     2.1643   146.7000    87.6799      .4035      .9770
 7382.5000     2.1697   146.5000    87.1320      .4712      .9603
 7383.0000     2.1670   146.9000    85.1188      .5677      .9464
 7383.5000     2.1592   146.8000    92.9232      .5838      .9410
 7384.0000     2.1542   147.5000    93.0986      .4449      .9331
 7384.5000     2.1537   147.5000    87.3636      .4176      .9173
 7385.0000     2.1535   147.4000    81.6301      .4125      .9157
 7385.5000     2.1535   148.4000    77.2170      .4080      .9300
 7386.0000     2.1581   148.9000    77.1932      .4605      .9265
 7386.5000     2.1678   149.4000    74.2853      .4888      .9199
 7387.0000     2.1738   148.8000    76.3568      .5413      .9175
 7387.5000     2.1704   147.4000    79.6682      .5542      .9238
 7388.0000     2.1629   148.0000    82.3427      .5797      .9362
 7388.5000     2.1605   147.7000    83.8238      .5392      .9407
 7389.0000     2.1629   149.8000    85.1184      .5102      .9465
 7389.5000     2.1634   147.7000    84.7000      .4863      .9603
 7390.0000     2.1610   147.3000    84.3447      .5214      .9746
 7390.5000     2.1594   147.2000    78.6491      .6496      .9841
 7391.0000     2.1600   146.5000    76.6849      .5471      .9684
 7391.5000     2.1605   145.9000    73.3689      .5255      .9322
 7392.0000     2.1608   145.6000    84.3339      .4480      .9039
 7392.5000     2.1636   141.3000    89.2977      .5035      .8856
 7393.0000     2.1689   141.1000    92.7390      .4742      .8984
 7393.5000     2.1730   143.4000    87.3209      .5313      .9244
 7394.0000     2.1726   144.1000    82.2559      .6613      .9105
 7394.5000     2.1682   138.8000    85.7959      .6420      .8728
 7395.0000     2.1627   138.8000    88.6054      .5296      .8523
 7395.5000     2.1587   143.1000    93.4361      .4422      .8493
 7396.0000     2.1592   142.7000    89.4201      .4829      .8541
 7396.5000     2.1651   144.7000    87.6534      .5170      .8752
 7397.0000     2.1732   143.3000    80.6754      .4628      .9250
 7397.5000     2.1790   145.0000    74.1377      .4260      .9454
 7398.0000     2.1788   140.8000    71.7156      .5393      .9360
 7398.5000     2.1732   144.4000    75.4650      .5415      .9482
 7399.0000     2.1686   141.7000    77.3058      .4787      .9642
 7399.5000     2.1707   143.5000    80.3000      .4121      .9730
 7400.0000     2.1783   140.3000    88.0196      .4212      .9675
 7400.5000     2.1846   141.3000    91.9211      .5152      .9500
 7401.0000     2.1866   140.0000    95.6288      .6305      .9371
 7401.5000     2.1871   141.2000    96.1326      .7297      .9532
 7402.0000     2.1883   133.7000    95.6939      .7138      .9907
